Picture Count,MLS #,Price,Class,Type,Status,County,AddressNew,Address,City,State,Agent - Agent Name,Listing Office 1 - Office Name,Latitude,Longitude
4,118678,0,Residential,Single Family,Withdrawn,Calloway,"2146 State Route 121 North, Murray, KY",2146 State Route 121 North,Murray,KY,Shea Sykes,SBG Real Property Professionals,33.1595005,-82.0382042
1,99539,0,Residential,Single Family,Expired,Ballard,"229 Green Street, Wickliffe, KY",229 Green Street,Wickliffe,KY,Mark Fredrick,1st Ky Realty and Auction,,
1,98723,550,Residential,Single Family,Sold,Christian,"1892 Woodmill Road, Hopkinsville, KY",1892 Woodmill Road,Hopkinsville,KY,Michael Harris,Harris Real Estate & Auction,56.0706025,-3.4326632
1,98726,550,Residential,Single Family,Sold,Christian,"1910 Beach Street, Hopkinsville, KY",1910 Beach Street,Hopkinsville,KY,Michael Harris,Harris Real Estate & Auction,,
1,98725,1650,Residential,Single Family,Sold,Christian,"911 E 2nd Street, Hopkinsville, KY",911 E 2nd Street,Hopkinsville,KY,Michael Harris,Harris Real Estate & Auction,34.0450268,-118.2165831
34,118739,2000,Residential,Single Family,Rented,Calloway,"77 Wells Purdom Dr, Almo, KY",77 Wells Purdom Dr,Almo,KY,Wilma Woods,Loretta Jobs Realty,,
0,98733,2750,Residential,Single Family,Sold,Christian,"1112 E 18th Street, Hopkinsville, KY",1112 E 18th Street,Hopkinsville,KY,Michael Harris,Harris Real Estate & Auction,32.6701405,-117.0920073
1,98731,3190,Residential,Single Family,Sold,Christian,"317 E 17th Street, Hopkinsville, KY",317 E 17th Street,Hopkinsville,KY,Michael Harris,Harris Real Estate & Auction,40.7341759,-73.982687
2,116526,4000,Residential,Single Family,Sold,Caldwell,"118 Baldwin, Princeton, KY",118 Baldwin,Princeton,KY,Brandon K Warfield,Keller Williams Experience Realty Eddyville Branch,,
1,99781,4400,Residential,Single Family,Sold,Christian,"1723 COLEMAN AT, Hopkinsville, KY",1723 COLEMAN AT,Hopkinsville,KY,Joshua D Abner,Atlas Real Estate & Auction Services,,
1,99782,4400,Residential,Single Family,Sold,Christian,"1122 YOUNGLOVE ST, Hopkinsville, KY",1122 YOUNGLOVE ST,Hopkinsville,KY,Joshua D Abner,Atlas Real Estate & Auction Services,36.8663126,-87.47349490000000
1,99788,4975,Residential,Single Family,Sold,Christian,"917 WOOD ST, Hopkinsville, KY",917 WOOD ST,Hopkinsville,KY,Joshua D Abner,Atlas Real Estate & Auction Services,,
5,120796,5250,Residential,Single Family,Sold,Christian,"2007 Carl Smith Rd, Hopkinsville, KY",2007 Carl Smith Rd,Hopkinsville,KY,Shulorn Hollowell Jeter,eXp Realty LLC,36.8723085,-87.4655727
1,99774,5500,Residential,Single Family,Sold,Christian,"311 E 22nd Street, Hopkinsville, KY",311 E 22nd Street,Hopkinsville,KY,Joshua D Abner,Atlas Real Estate & Auction Services,40.7361903,-73.9789253
1,99784,5800,Residential,Single Family,Sold,Christian,"404 BRYAN ST, Hopkinsville, KY",404 BRYAN ST,Hopkinsville,KY,Joshua D Abner,Atlas Real Estate & Auction Services,32.7955812,-96.7834434
1,93403,6400,Residential,Single Family,Sold,Ballard,"1158 Beech Grove Road, Wickliffe, KY",1158 Beech Grove Road,Wickliffe,KY,Janie Jones,Purchase Realty Group,54.9675092,-1.6392089
1,98724,7150,Residential,Single Family,Sold,Christian,"116 S Virginia Street, Hopkinsville, KY",116 S Virginia Street,Hopkinsville,KY,Michael Harris,Harris Real Estate & Auction,,
1,98072,8000,Residential,Single Family,Sold,Caldwell,"10779 Dawson Road, Princeton, KY",10779 Dawson Road,Princeton,KY,Ryals Farless,Farless Realty,48.4974108,-89.4211696
1,88509,8500,Residential,Single Family,Sold,Caldwell,"504 Maple Ave., Princeton, KY",504 Maple Ave.,Princeton,KY,Shulorn Hollowell Jeter,C21 Service Realty,,
1,105999,8500,Residential,Single Family,Sold,Calloway,"304 S 11th Street, Murray, KY",304 S 11th Street,Murray,KY,Lynda Houck,Greys Properties LLC,40.7387766,-74.2022222
1,90475,8900,Residential,Single Family,Sold,Ballard,"1023 Clyde Elrod Rd, Kevil, KY",1023 Clyde Elrod Rd,Kevil,KY,Beth Miller,Greys Properties LLC,37.0842659,-88.88603740000000
1,90442,9000,Residential,Single Family,Sold,Christian,"307 N Legion Circle, Hopkinsville, KY",307 N Legion Circle,Hopkinsville,KY,*Not in *Regional MLS,*Not in Regional MLS,,
1,96583,9630,Residential,Single Family,Sold,Christian,"1212 Sharpe St, Hopkinsville, KY",1212 Sharpe St,Hopkinsville,KY,Michael Harris,Harris Real Estate & Auction,41.6501406,-71.6784636
1,90110,9900,Residential,Single Family,Withdrawn,Christian,"307 N Legion, Hopkinsville, KY",307 N Legion,Hopkinsville,KY,Melody Holder,Re/Max Southern Charm,42.8565507,-78.8158364
1,99780,10000,Residential,Single Family,Sold,Christian,"1009 East 18TH ST, Hopkinsville, KY",1009 East 18TH ST,Hopkinsville,KY,Joshua D Abner,Atlas Real Estate & Auction Services,37.7919207,-122.2428321
1,90109,10000,Residential,Single Family,Withdrawn,Christian,"105 N Elm, Christian Co, KY",105 N Elm,Christian Co,KY,Melody Holder,Re/Max Southern Charm,,
1,96056,10000,Residential,Single Family,Sold,Carlisle,"5478 S US 51, Arlington, KY",5478 S US 51,Arlington,KY,Deana C O'Neal,Bone & Co. Realtors,36.7952302,-89.01320920000000
1,89164,10000,Residential,Single Family,Sold,Calloway,"10245 E st rt 94, Murray, KY",10245 E st rt 94,Murray,KY,Max Witzler,Keller Williams Experience Realty,,
1,90333,10500,Residential,Single Family,Withdrawn,Caldwell,"205 S McNary St, Princeton, KY",205 S McNary St,Princeton,KY,Keanu C Murphy,Trifecta Real Estate Services,37.1118217,-87.8906494
1,97918,11000,Residential,Single Family,Sold,Calloway,"8299 E State Line Road, Hazel, KY",8299 E State Line Road,Hazel,KY,Michael Harris,Harris Real Estate & Auction,40.00133540000000,-96.6525052
1,87772,11000,Residential,Single Family,Sold,Caldwell,"301 Akers Ave, Princeton, KY",301 Akers Ave,Princeton,KY,Michael D Smith,Keller Williams Experience Realty,36.5757588,-82.5609443
1,87141,12000,Residential,Single Family,Expired,Caldwell,"606 W Green, Princeton, KY",606 W Green,Princeton,KY,Natalie K Wyatt,KY Homes Realty,,
6,114100,12000,Residential,Single Family,Sold,Carlisle,"44 Orchard Street, Bardwell, KY",44 Orchard Street,Bardwell,KY,Nancy Black,RE/MAX Realty Group,42.1058667,-80.0757771
1,97089,12500,Residential,Single Family,Sold,Caldwell,"8873 Farmersville Rd., Fredonia, KY",8873 Farmersville Rd.,Fredonia,KY,*Not in *Regional MLS,*Not in Regional MLS,39.65754770000000,-84.4225538
4,110662,12500,Residential,Single Family,Sold,Ballard,"352 Cumberland St., Wickliffe, KY",352 Cumberland St.,Wickliffe,KY,Larry Kelley,River Country Real Estate,,
1,110665,12500,Residential,Single Family,Sold,Ballard,"432 Ohio St., Wickliffe, KY",432 Ohio St.,Wickliffe,KY,Larry Kelley,River Country Real Estate,40.4172871,-82.90712300000000
1,79061,13000,Residential,Single Family,Sold,Calloway,"307 Third Street, Hazel, KY",307 Third Street,Hazel,KY,Reno Anderson,Greys Properties LLC,37.7528313,-122.3878904
1,99785,13100,Residential,Single Family,Sold,Christian,"121 MEANS AVE, Hopkinsville, KY",121 MEANS AVE,Hopkinsville,KY,Joshua D Abner,Atlas Real Estate & Auction Services,36.8719539,-87.48602820000000
1,110707,13500,Residential,Single Family,Sold,Calloway,"711 Payne Street, Murray, KY",711 Payne Street,Murray,KY,John H Kopperud,Kopperud Realty,38.2524254,-85.7122257
1,88280,14000,Residential,Single Family,Sold,Calloway,"501 VINE STREET, Murray, KY",501 VINE STREET,Murray,KY,Richard Rollins,Kopperud Realty,,
1,94862,14000,Residential,Single Family,Sold,Calloway,"2809 West Fork Road, Murray, KY",2809 West Fork Road,Murray,KY,Aleshia G Banks,Keller Williams Experience Realty,39.1738745,-84.58236
1,102313,14000,Residential,Single Family,Sold,Calloway,"101 edgar way, New Concord, KY",101 edgar way,New Concord,KY,Max Witzler,Keller Williams Experience Realty,-32.0364889,115.8470625
1,95296,14500,Residential,Single Family,Sold,Caldwell,"425 McLin Street, Princeton, KY",425 McLin Street,Princeton,KY,Billie K Farless,Farless Realty,37.0999396,-87.8760526
1,99772,14800,Residential,Single Family,Sold,Christian,"2151 Greenville Road, Hopkinsville, KY",2151 Greenville Road,Hopkinsville,KY,Joshua D Abner,Atlas Real Estate & Auction Services,,
1,99786,14800,Residential,Single Family,Sold,Christian,"131 AVALON HILL ST, Hopkinsville, KY",131 AVALON HILL ST,Hopkinsville,KY,Joshua D Abner,Atlas Real Estate & Auction Services,,
17,120967,15000,Residential,Single Family,Withdrawn,Ballard,"117 Walnut Street, LaCenter, KY",117 Walnut Street,LaCenter,KY,Linda S Robbins,Keller Williams Experience Realty Paducah Branch,39.9468525,-75.1437066
1,88532,15000,Residential,Single Family,Sold,Carlisle,"127 Mounds Street, Arlington, KY",127 Mounds Street,Arlington,KY,Deana C O'Neal,Bone & Co. Realtors,36.7911694,-89.0109335
1,90816,15000,Residential,Single Family,Sold,Carlisle,"6781 Highway 62, Bardwell, KY",6781 Highway 62,Bardwell,KY,Larry Kelley,River Country Real Estate,,
1,84612,15000,Residential,Single Family,Sold,Calloway,"918 N 18th, Murray, KY",918 N 18th,Murray,KY,Matthew Pool,Tucker Auction & Realty LLC,32.5177631,-92.10703630000000
1,93162,15000,Residential,Single Family,Sold,Calloway,"204 Woodlawn, Murray, KY",204 Woodlawn,Murray,KY,Jessica R Beckham,Greys Properties LLC,,
1,97346,15950,Residential,Single Family,Sold,Calloway,"140 Old Shiloh Road, Murray, KY",140 Old Shiloh Road,Murray,KY,Michael Harris,Harris Real Estate & Auction,36.69907390000000,-88.1743949
1,99767,16500,Residential,Single Family,Sold,Christian,"207 Wheeler Street, Hopkinsville, KY",207 Wheeler Street,Hopkinsville,KY,Joshua D Abner,Atlas Real Estate & Auction Services,,
1,99789,16500,Residential,Single Family,Sold,Christian,"151 N KENTUCKY AVE, Hopkinsville, KY",151 N KENTUCKY AVE,Hopkinsville,KY,Joshua D Abner,Atlas Real Estate & Auction Services,28.0449427,-81.9549502
1,87137,16500,Residential,Single Family,Sold,Caldwell,"301 Eagon St, Princeton, KY",301 Eagon St,Princeton,KY,Natalie K Wyatt,KY Homes Realty,37.1120938,-87.89386380000000
5,121344,17000,Residential,Single Family,Sold,Caldwell,"309 Cadiz St., Princeton, KY",309 Cadiz St.,Princeton,KY,Lauren Hawkins,Keller Williams Experience Realty Paducah Branch,32.7669898,-96.8031357
1,84154,17000,Residential,Single Family,Sold,Ballard,"147 Walnut, LaCenter, KY",147 Walnut,LaCenter,KY,Kimberlee R Copeland,Park Avenue Properties,,
1,100238,17000,Residential,Single Family,Sold,Calloway,"322 N 7th, Murray, KY",322 N 7th,Murray,KY,Lynda Houck,Greys Properties LLC,40.7146772,-73.95303900000000
1,103556,17000,Residential,Single Family,Sold,Calloway,"412 S 6th Street, Murray, KY",412 S 6th Street,Murray,KY,Jennifer L Hardin,C21 Service Realty Inc. Marshall County,39.9434726,-75.1520087
1,96601,17120,Residential,Single Family,Sold,Christian,"1921 Bethel St, Hopkinsville, KY",1921 Bethel St,Hopkinsville,KY,Michael Harris,Harris Real Estate & Auction,21.3117496,-157.8597599
1,94992,17500,Residential,Single Family,Sold,Christian,"1600 S Clay, Hopkinsville, KY",1600 S Clay,Hopkinsville,KY,Gay N Rittenberry,Exit One Real Estate,,
1,91913,17500,Residential,Single Family,Sold,Caldwell,"514 N Jefferson Street, Princeton, KY",514 N Jefferson Street,Princeton,KY,Ryals Farless,Farless Realty,41.8858171,-87.6427862
1,110676,17500,Residential,Single Family,Sold,Carlisle,"132 Hobbs St., Arlington, KY",132 Hobbs St.,Arlington,KY,Larry Kelley,River Country Real Estate,-37.8079221,144.893035
12,120986,18000,Residential,Single Family,Withdrawn,Ballard,"408 E 2nd Street, LaCenter, KY",408 E 2nd Street,LaCenter,KY,Linda S Robbins,Keller Williams Experience Realty Paducah Branch,34.0450268,-118.2165831
1,86833,18000,Residential,Single Family,Sold,Carlisle,"155 SR 123, Bardwell, KY",155 SR 123,Bardwell,KY,Deana C O'Neal,Bone & Co. Realtors,39.4285794,-84.1832981
1,96838,18000,Residential,Single Family,Sold,Carlisle,"57 Mounds Street, Arlington, KY",57 Mounds Street,Arlington,KY,Mark Fredrick,1st Ky Realty and Auction,36.7903707,-89.0105949
3,111869,18000,Residential,Single Family,Sold,Caldwell,"315 Dawson Road, Princeton, KY",315 Dawson Road,Princeton,KY,Brandon K Warfield,Coldwell Banker Service 1st Realty,36.4857869,-96.129959
30,120044,18000,Residential,Single Family,Sold,Ballard,"224 S 6th Street, Barlow, KY",224 S 6th Street,Barlow,KY,Chris Fulton,Chris Fulton Real Estate,39.9466994,-75.151318
1,96604,18190,Residential,Single Family,Sold,Christian,"1815 Walnut St, Hopkinsville, KY",1815 Walnut St,Hopkinsville,KY,Michael Harris,Harris Real Estate & Auction,39.9507619,-75.1712944
1,96592,18725,Residential,Single Family,Sold,Christian,"202 W 15th Street, Hopkinsville, KY",202 W 15th Street,Hopkinsville,KY,Michael Harris,Harris Real Estate & Auction,40.7392894,-73.9997234
1,82978,19000,Residential,Single Family,Sold,Caldwell,"517 N JEFFERSON ST, Princeton, KY",517 N JEFFERSON ST,Princeton,KY,Kathy M Breedlove,C21 Land of Lakes Inc.,43.0367707,-87.9054202
1,104944,19000,Residential,Single Family,Sold,Calloway,"4505 Radio Road, Dexter, KY",4505 Radio Road,Dexter,KY,Ryan Stanger,SBG Real Property Professionals,26.1542479,-81.7434624
1,103891,19500,Residential,Single Family,Sold,Caldwell,"1028 N JEFFERSON ST., Princeton, KY",1028 N JEFFERSON ST.,Princeton,KY,Billie K Farless,Farless Realty,,
1,107024,19500,Residential,Single Family,Sold,Caldwell,"306 White St., Princeton, KY",306 White St.,Princeton,KY,Melissa Wynn,Keller Williams Experience Realty Eddyville Branch,,
1,115458,19500,Residential,Single Family,Sold,Caldwell,"303 N Hawthorne Street, Princeton, KY",303 N Hawthorne Street,Princeton,KY,Brandon K Warfield,Coldwell Banker Service 1st Realty,45.83377980000000,-94.28289160000000
1,99773,19800,Residential,Single Family,Sold,Christian,"2119 Crocket St, Hopkinsville, KY",2119 Crocket St,Hopkinsville,KY,Joshua D Abner,Atlas Real Estate & Auction Services,40.591022,-86.7063885
1,99783,19800,Residential,Single Family,Sold,Christian,"1230 E 7TH ST, Hopkinsville, KY",1230 E 7TH ST,Hopkinsville,KY,Joshua D Abner,Atlas Real Estate & Auction Services,30.2652716,-97.7290185
1,101610,19900,Residential,Single Family,Withdrawn,Ballard,"352 Cumberland St., Wickliffe, KY",352 Cumberland St.,Wickliffe,KY,Larry Kelley,River Country Real Estate,,
1,105964,19900,Residential,Single Family,Withdrawn,Ballard,"352 Cumberland St., Wickliffe, KY",352 Cumberland St.,Wickliffe,KY,Larry Kelley,River Country Real Estate,,
1,88403,19900,Residential,Single Family,Withdrawn,Calloway,"00 Cross Spann Rd, Murray, KY",00 Cross Spann Rd,Murray,KY,Tonja L Adams,Park Avenue Properties,36.7306898,-88.1308626
1,80632,20000,Residential,Single Family,Sold,Ballard,"787 Liberty Street, Barlow, KY",787 Liberty Street,Barlow,KY,Crystal Bailey,Keller Williams Experience Realty Paducah Branch,,
1,84937,20000,Residential,Single Family,Sold,Ballard,"5192 Holloway Landing Road, Barlow, KY",5192 Holloway Landing Road,Barlow,KY,Kimberly M Spell,Purchase Realty Group,37.052553,-89.065912
1,81066,20000,Residential,Single Family,Sold,Caldwell,"620 N Jeffereson, Princeton, KY",620 N Jeffereson,Princeton,KY,Billie K Farless,Farless Realty,41.8901529,-87.64302160000000
1,73487,20000,Residential,Single Family,Sold,Calloway,"400 State Street, Hazel, KY",400 State Street,Hazel,KY,Judy E Denton,Greys Properties LLC,,
3,119543,20000,Residential,Single Family,Sold,Calloway,"608 S 9th Street, Murray, KY",608 S 9th Street,Murray,KY,Gale Broach Sharp,Kopperud Realty,,
1,99770,20900,Residential,Single Family,Sold,Christian,"420 East 23rd Street, Hopkinsville, KY",420 East 23rd Street,Hopkinsville,KY,Joshua D Abner,Atlas Real Estate & Auction Services,40.736007,-73.9776356
1,86584,21000,Residential,Single Family,Withdrawn,Caldwell,"301 Akers Ave, Princeton, KY",301 Akers Ave,Princeton,KY,Amy Hughes,Keller Williams Experience Realty Paducah Branch,36.5757588,-82.5609443
23,117715,21000,Residential,Single Family,Sold,Caldwell,"514 North Jefferson St, Princeton, KY",514 North Jefferson St,Princeton,KY,Darren Ramey,Farless Realty,,
1,106720,21000,Residential,Single Family,Sold,Carlisle,"204 Hobbs Street, Arlington, KY",204 Hobbs Street,Arlington,KY,Deana C O'Neal,Bone & Co. Realtors,-37.8079221,144.893035
1,85498,21200,Residential,Single Family,Sold,Caldwell,"3008 Grooms Lane, Princeton, KY",3008 Grooms Lane,Princeton,KY,Jesse Case,RE/MAX Real Estate Services,39.3284104,-76.8725209
14,119759,21350,Residential,Single Family,Sold,Caldwell,"214 Ratliff Street, Princeton, KY",214 Ratliff Street,Princeton,KY,Annette Evans-Harper,The Jeter Group,,
1,88661,22000,Residential,Single Family,Sold,Calloway,"400 N 7th Street, Murray, KY",400 N 7th Street,Murray,KY,Gale Broach Sharp,Kopperud Realty,39.95826600000000,-75.1504186
1,89937,22000,Residential,Single Family,Sold,Calloway,"1489 Lawson Road, Murray, KY",1489 Lawson Road,Murray,KY,John H Kopperud,Kopperud Realty,,
1,105943,22500,Residential,Single Family,Withdrawn,Carlisle,"132 Hobbs St., Arlington, KY",132 Hobbs St.,Arlington,KY,Larry Kelley,River Country Real Estate,-37.8079221,144.893035
1,85190,22500,Residential,Single Family,Sold,Caldwell,"215 Ratliff, Princeton, KY",215 Ratliff,Princeton,KY,Billie K Farless,Farless Realty,,
1,81279,22500,Residential,Single Family,Withdrawn,Ballard,"5637 Mayfield Rd., Wickliffe, KY",5637 Mayfield Rd.,Wickliffe,KY,Larry Kelley,River Country Real Estate,41.5204584,-81.47607700000000
1,113702,23000,Residential,Single Family,Sold,Ballard,"606 Westvaco Road, Wickliffe, KY",606 Westvaco Road,Wickliffe,KY,Kevin D Housman,Housman Partners Real Estate,35.0947543,-88.6733718
1,104985,23500,Residential,Single Family,Sold,Caldwell,"327 Baldwin, Princeton, KY",327 Baldwin,Princeton,KY,Billie K Farless,Farless Realty,,
1,96637,23500,Residential,Single Family,Sold,Carlisle,"15 E Jennings, Bardwell, KY",15 E Jennings,Bardwell,KY,Ella E Burgess,C21 Service Realty,,
17,117811,23500,Residential,Single Family,Sold,Calloway,"502 N 1st, Murray, KY",502 N 1st,Murray,KY,Shulorn Hollowell Jeter,eXp Realty LLC,,
1,96600,23540,Residential,Single Family,Sold,Christian,"190 Arkansas Ave, Hopkinsville, KY",190 Arkansas Ave,Hopkinsville,KY,Michael Harris,Harris Real Estate & Auction,41.2735436,-70.1910609
1,76304,24000,Residential,Single Family,Expired,Carlisle,"5800 U.S. Hwy 62, Bardwell, KY",5800 U.S. Hwy 62,Bardwell,KY,Ron Hughes,RE/MAX Realty Group,36.9103319,-88.923048
1,79508,24000,Residential,Single Family,Sold,Caldwell,"305 S Jefferson Street, Princeton, KY",305 S Jefferson Street,Princeton,KY,Ryals Farless,Farless Realty,41.8672777,-87.642184
1,87097,24000,Residential,Single Family,Sold,Caldwell,"908 Mechanic St, Princeton, KY",908 Mechanic St,Princeton,KY,Natalie K Wyatt,KY Homes Realty,42.5208738,-71.739299
1,107326,24000,Residential,Single Family,Sold,Caldwell,"207 Garrett Street, Princeton, KY",207 Garrett Street,Princeton,KY,Ryals Farless,Farless Realty,38.0282846,-78.4812204
1,99790,24800,Residential,Single Family,Sold,Christian,"1509 SHAWNEE Drive, Hopkinsville, KY",1509 SHAWNEE Drive,Hopkinsville,KY,Joshua D Abner,Atlas Real Estate & Auction Services,39.0617499,-94.649072
1,95568,24900,Residential,Single Family,Withdrawn,Ballard,"352 Cumberland St., Wickliffe, KY",352 Cumberland St.,Wickliffe,KY,Larry Kelley,River Country Real Estate,,
1,75470,24900,Residential,Single Family,Withdrawn,Carlisle,"6781 Highway 62, Bardwell, KY",6781 Highway 62,Bardwell,KY,Larry Kelley,River Country Real Estate,,
1,101618,24900,Residential,Single Family,Withdrawn,Carlisle,"14 Church St, Bardwell, KY",14 Church St,Bardwell,KY,Larry Kelley,River Country Real Estate,,
1,105965,24900,Residential,Single Family,Withdrawn,Carlisle,"14 Church St, Bardwell, KY",14 Church St,Bardwell,KY,Larry Kelley,River Country Real Estate,,
1,79839,25000,Residential,Single Family,Sold,Ballard,"328 Cedar Street, LaCenter, KY",328 Cedar Street,LaCenter,KY,David Nelson,Purchase Realty Group,,
1,105976,25000,Residential,Single Family,Withdrawn,Ballard,"432 Ohio St., Wickliffe, KY",432 Ohio St.,Wickliffe,KY,Larry Kelley,River Country Real Estate,40.4172871,-82.90712300000000
1,85789,25000,Residential,Single Family,Sold,Ballard,"663 Broadway, LaCenter, KY",663 Broadway,LaCenter,KY,Laura Petrie,Sirk & Company Real Estate,40.6246666,-74.1138335
1,90948,25000,Residential,Single Family,Sold,Ballard,"419 Pine Street, LaCenter, KY",419 Pine Street,LaCenter,KY,Kimberlee R Copeland,Park Avenue Properties,38.2495222,-85.7268596
26,111907,25000,Residential,Single Family,Sold,Ballard,"635 Broadway Street, Barlow, KY",635 Broadway Street,Barlow,KY,David Nelson,Purchase Realty Group,41.0538135,-73.8611013
1,100020,25000,Residential,Single Family,Sold,Caldwell,"1013 N Jefferson, Princeton, KY",1013 N Jefferson,Princeton,KY,Rose Morse,RE/MAX Real Estate Services,41.8858171,-87.6427862
1,105106,25000,Residential,Single Family,Sold,Carlisle,"110 County Road 1015, Cunningham, KY",110 County Road 1015,Cunningham,KY,Suzy Gilland,C21 Service Realty,33.0461307,-86.80492320000000
2,110674,25000,Residential,Single Family,Sold,Carlisle,"24 Tank St., Bardwell, KY",24 Tank St.,Bardwell,KY,Larry Kelley,River Country Real Estate,-27.4685635,153.019564
0,90433,25000,Residential,Single Family,Sold,Calloway,"4196 Faxon Road, Murray, KY",4196 Faxon Road,Murray,KY,Krista K Thompson,Kopperud Realty,36.6796914,-88.12908810000000
1,90623,25000,Residential,Single Family,Sold,Calloway,"286 Snipe Creek Drive, Murray, KY",286 Snipe Creek Drive,Murray,KY,Janette L DeWitt,Kopperud Realty,36.6656771,-88.1010565
1,91192,25000,Residential,Single Family,Sold,Calloway,"303 S 11th, Murray, KY",303 S 11th,Murray,KY,Rebecca Landolt,Loretta Jobs Realty,,
1,81106,25900,Residential,Single Family,Expired,Calloway,"1648 Radio Road, Almo, KY",1648 Radio Road,Almo,KY,Carrie L Armstrong,Keller Williams Experience Realty,26.1532031,-81.76825460000000
1,95571,25900,Residential,Single Family,Withdrawn,Carlisle,"98 Front Street, Bardwell, KY",98 Front Street,Bardwell,KY,Larry Kelley,River Country Real Estate,40.7046148,-74.007536
1,105967,25900,Residential,Single Family,Withdrawn,Carlisle,"98 Front Street, Bardwell, KY",98 Front Street,Bardwell,KY,Larry Kelley,River Country Real Estate,40.7046148,-74.007536
1,89212,26000,Residential,Single Family,Sold,Calloway,"101 Christian Lane, Hazel, KY",101 Christian Lane,Hazel,KY,Patricia A Cherry,Re/Max Real Estate Associates Murray,41.6337955,-72.75183180000000
11,115716,26000,Residential,Single Family,Sold,Calloway,"808 Sycamore Street, Murray, KY",808 Sycamore Street,Murray,KY,Lynda Houck,Greys Properties LLC,,
1,87135,26000,Residential,Single Family,Sold,Caldwell,"211 Harvey Ln, Princeton, KY",211 Harvey Ln,Princeton,KY,Natalie K Wyatt,KY Homes Realty,,
12,115306,26500,Residential,Single Family,Sold,Calloway,"462 Paddle Ln, New Concord, KY",462 Paddle Ln,New Concord,KY,Jennifer L Hardin,C21 Service Realty Inc. Marshall County,36.62433,-88.079095
1,96603,26750,Residential,Single Family,Sold,Christian,"407 W 13th Street, Hopkinsville, KY",407 W 13th Street,Hopkinsville,KY,Michael Harris,Harris Real Estate & Auction,40.74068200000000,-74.00627950000000
35,110670,26900,Residential,Single Family,Sold,Carlisle,"98 Front Street, Bardwell, KY",98 Front Street,Bardwell,KY,Larry Kelley,River Country Real Estate,40.7046148,-74.007536
23,120682,27000,Residential,Single Family,Sold,Carlisle,"6546 ST RT 80 E, Arlington, KY",6546 ST RT 80 E,Arlington,KY,Gary L Hendley,Westwind Real Estate & Development,,
1,97323,27000,Residential,Single Family,Sold,Caldwell,"703 N Jefferson Street, Princeton, KY",703 N Jefferson Street,Princeton,KY,Billie K Farless,Farless Realty,,
1,110700,27000,Residential,Single Family,Sold,Caldwell,"4955 Hwy 70, Fredonia, KY",4955 Hwy 70,Fredonia,KY,Darren Ramey,Farless Realty,,
8,118622,27000,Residential,Single Family,Sold,Calloway,"1621 Old Newburg Road, Murray, KY",1621 Old Newburg Road,Murray,KY,Brittany J Marchetti,Kopperud Realty,36.653999,-88.18326000000000
1,81510,27500,Residential,Single Family,Withdrawn,Ballard,"480 Kinley-Miller Road, Wickliffe, KY",480 Kinley-Miller Road,Wickliffe,KY,Larry Kelley,River Country Real Estate,36.9937184,-88.9429765
1,98984,27500,Residential,Single Family,Sold,Calloway,"315 Woodlawn, Murray, KY",315 Woodlawn,Murray,KY,Krista K Thompson,Kopperud Realty,,
1,103606,27500,Residential,Single Family,Sold,Caldwell,"316 S South Jefferson St., Princeton, KY",316 S South Jefferson St.,Princeton,KY,Sherry G Patterson,Coldwell Banker Service 1st Realty,,
1,110439,27500,Residential,Single Family,Sold,Carlisle,"94 Elm, Bardwell, KY",94 Elm,Bardwell,KY,Larry Kelley,River Country Real Estate,,
5,119400,27500,Residential,Single Family,Sold,Carlisle,"42 Middle Street, Bardwell, KY",42 Middle Street,Bardwell,KY,Sarah E Riley,Keller Williams Experience Realty Paducah Branch,,
1,83994,28000,Residential,Single Family,Sold,Carlisle,"5478 N US 51, Arlington, KY",5478 N US 51,Arlington,KY,Deana C O'Neal,Bone & Co. Realtors,36.7952302,-89.01320920000000
1,95099,28000,Residential,Single Family,Sold,Carlisle,"92 Church St, Bardwell, KY",92 Church St,Bardwell,KY,Kim Musgrave,Elite Realty,-34.4304577,150.8941002
1,110437,28000,Residential,Single Family,Sold,Carlisle,"20 Middle St., Bardwell, KY",20 Middle St.,Bardwell,KY,Larry Kelley,River Country Real Estate,,
1,107254,28000,Residential,Single Family,Sold,Caldwell,"509 Willow Lane, Princeton, KY",509 Willow Lane,Princeton,KY,Kartik Patel,Keller Williams Experience Realty Paducah Branch,,
1,83452,28000,Residential,Single Family,Sold,Ballard,"257 Chestnut Street, LaCenter, KY",257 Chestnut Street,LaCenter,KY,Kimberlee R Copeland,Park Avenue Properties,,
1,107196,28000,Residential,Single Family,Sold,Calloway,"403 S 10th street, Murray, KY",403 S 10th street,Murray,KY,Sue Ann Stevens,Keller Williams Experience Realty,,
1,88149,28900,Residential,Single Family,Expired,Calloway,"286 Snipe Creek, Murray, KY",286 Snipe Creek,Murray,KY,Janette L DeWitt,Kopperud Realty,36.6656771,-88.1010565
1,102714,28900,Residential,Single Family,Sold,Calloway,"2569 State Route 121 South, Murray, KY",2569 State Route 121 South,Murray,KY,Mark Fredrick,1st Ky Realty and Auction,,
1,109013,29000,Residential,Single Family,Sold,Calloway,"30 Lane, Dexter, KY",30 Lane,Dexter,KY,Bonnie Byerly,Chavis Real Estate and Auction,,
1,83330,29000,Residential,Single Family,Sold,Ballard,"787 Kentucky, Kevil, KY",787 Kentucky,Kevil,KY,Sharon Sanderson,Your HOME Team Realtors,36.9973008,-88.5009845
1,94549,29000,Residential,Single Family,Sold,Caldwell,"411 N Jefferson Street, Princeton, KY",411 N Jefferson Street,Princeton,KY,Ryals Farless,Farless Realty,41.8858171,-87.6427862
9,121744,29000,Residential,Single Family,Sold,Caldwell,"315 Dawson Rd, Princeton, KY",315 Dawson Rd,Princeton,KY,Crystal Oliver,RE/MAX Realty Group,36.4865843,-96.132375
1,102299,29000,Residential,Single Family,Sold,Carlisle,"6546/6548 Highway 80 E, Arlington, KY",6546/6548 Highway 80 E,Arlington,KY,Nancy Black,RE/MAX Realty Group,32.5862217,-95.1866938
1,98855,29500,Residential,Single Family,Sold,Caldwell,"309 Stone Street, Princeton, KY",309 Stone Street,Princeton,KY,Tammy L Warner,Lakeland Realty,40.7047663,-74.0097907
1,75331,29900,Residential,Single Family,Expired,Carlisle,"200 3rd Street, Arlington, KY",200 3rd Street,Arlington,KY,Larry Kelley,River Country Real Estate,36.162065,-115.1482586
1,101608,29900,Residential,Single Family,Withdrawn,Ballard,"332 Cumberland St., Wickliffe, KY",332 Cumberland St.,Wickliffe,KY,Larry Kelley,River Country Real Estate,,
1,75274,29900,Residential,Single Family,Expired,Ballard,"533 Monroe, Barlow, KY",533 Monroe,Barlow,KY,Kim Musgrave,Elite Realty,40.7449464,-74.0380326
1,73510,29900,Residential,Single Family,Sold,Caldwell,"104 Cherry Street, Princeton, KY",104 Cherry Street,Princeton,KY,Billie K Farless,Farless Realty,,
1,102899,29900,Residential,Single Family,Expired,Caldwell,"306 WHITE ST, Princeton, KY",306 WHITE ST,Princeton,KY,Melissa Wynn,Keller Williams Experience Realty Eddyville Branch,,
1,101609,29900,Residential,Single Family,Withdrawn,Ballard,"332 Cumberland St., Wickliffe, KY",332 Cumberland St.,Wickliffe,KY,Larry Kelley,River Country Real Estate,,
1,107206,29900,Residential,Single Family,Sold,Caldwell,"403 Cassidy Ave, Fredonia, KY",403 Cassidy Ave,Fredonia,KY,Melissa Wynn,Keller Williams Experience Realty Eddyville Branch,38.0201873,-84.49069540000000
1,90820,29900,Residential,Single Family,Withdrawn,Carlisle,"24 Tank St., Bardwell, KY",24 Tank St.,Bardwell,KY,Larry Kelley,River Country Real Estate,-27.4685635,153.019564
1,110675,29900,Residential,Single Family,Sold,Carlisle,"14 Church St, Bardwell, KY",14 Church St,Bardwell,KY,Larry Kelley,River Country Real Estate,,
1,90822,29900,Residential,Single Family,Withdrawn,Carlisle,"14 Church St, Bardwell, KY",14 Church St,Bardwell,KY,Larry Kelley,River Country Real Estate,,
1,95573,29900,Residential,Single Family,Withdrawn,Carlisle,"24 Tank St., Bardwell, KY",24 Tank St.,Bardwell,KY,Larry Kelley,River Country Real Estate,-27.4685635,153.019564
1,95574,29900,Residential,Single Family,Withdrawn,Carlisle,"14 Church St, Bardwell, KY",14 Church St,Bardwell,KY,Larry Kelley,River Country Real Estate,,
1,101615,29900,Residential,Single Family,Withdrawn,Carlisle,"98 Front Street, Bardwell, KY",98 Front Street,Bardwell,KY,Larry Kelley,River Country Real Estate,40.7046148,-74.007536
1,101617,29900,Residential,Single Family,Withdrawn,Carlisle,"24 Tank St., Bardwell, KY",24 Tank St.,Bardwell,KY,Larry Kelley,River Country Real Estate,-27.4685635,153.019564
1,105966,29900,Residential,Single Family,Withdrawn,Carlisle,"24 Tank St., Bardwell, KY",24 Tank St.,Bardwell,KY,Larry Kelley,River Country Real Estate,-27.4685635,153.019564
1,100941,30000,Residential,Single Family,Expired,Caldwell,"323 Cadiz Street, Princeton, KY",323 Cadiz Street,Princeton,KY,Ryals Farless,Farless Realty,32.7670711,-96.8030544
1,105970,30000,Residential,Single Family,Sold,Carlisle,"97 County Road 1302, Bardwell, KY",97 County Road 1302,Bardwell,KY,Larry Kelley,River Country Real Estate,40.1145168,-106.4954214
4,101624,30000,Residential,Single Family,Expired,Caldwell,"1018 N Jefferson, Princeton, KY",1018 N Jefferson,Princeton,KY,Brian Hill,KY Homes Realty,41.8858171,-87.6427862
3,110668,30000,Residential,Single Family,Sold,Carlisle,"226 Front St., Bardwell, KY",226 Front St.,Bardwell,KY,Larry Kelley,River Country Real Estate,,
1,79005,30000,Residential,Single Family,Sold,Caldwell,"353 Creswell Road, Princeton, KY",353 Creswell Road,Princeton,KY,Ryals Farless,Farless Realty,53.2766921,-1.245353
1,99937,30000,Residential,Single Family,Sold,Caldwell,"415 Hopkinville Street, Princeton, KY",415 Hopkinville Street,Princeton,KY,Jesse Case,RE/MAX Real Estate Services,36.7252708,-87.2660105
15,111644,30000,Residential,Single Family,Sold,Caldwell,"800 Marion Road, Princeton, KY",800 Marion Road,Princeton,KY,Melissa Wynn,Keller Williams Experience Realty Eddyville Branch,43.53999100000000,-96.7903257
1,110948,30000,Residential,Single Family,Sold,Ballard,"1057 Beech Grove Road, Wickliffe, KY",1057 Beech Grove Road,Wickliffe,KY,Kevin Rennegarbe,RE/MAX Realty Group,37.9809807,-85.7237885
1,87167,30000,Residential,Single Family,Sold,Christian,"8310 Madisonville Road, Hopkinsville, KY",8310 Madisonville Road,Hopkinsville,KY,Jennifer Blane,Exit One Real Estate,36.9783528,-87.4801488
1,81689,30000,Residential,Single Family,Sold,Calloway,"130 paddle, New Concord, KY",130 paddle,New Concord,KY,Michael Brodie,1st Ky Realty and Auction,,
1,102305,30000,Residential,Single Family,Sold,Calloway,"261 Deercrest Lane, Murray, KY",261 Deercrest Lane,Murray,KY,Shawn Stout,Crye-Leike Realty Services,36.7340155,-88.1383077
1,108155,30000,Residential,Single Family,Sold,Calloway,"1634 Olive Street, Murray, KY",1634 Olive Street,Murray,KY,Debbie Hargrove,Barger Realty,38.6355848,-90.2250112
1,93311,30700,Residential,Single Family,Sold,Calloway,"1107 Olive Street, Murray, KY",1107 Olive Street,Murray,KY,Brenda C Rowland,Kopperud Realty,38.629662,-90.195908
1,90980,30800,Residential,Single Family,Sold,Christian,"245 Quisenberry Lane, Hopkinsville, KY",245 Quisenberry Lane,Hopkinsville,KY,Michael Harris,Harris Real Estate & Auction,36.886607,-87.628136
1,87136,31000,Residential,Single Family,Sold,Caldwell,"411 N Jefferson, Princeton, KY",411 N Jefferson,Princeton,KY,Natalie K Wyatt,KY Homes Realty,41.88922490000000,-87.64286900000000
8,117925,32000,Residential,Single Family,Withdrawn,Calloway,"1621 Old Newburg Road, Murray, KY",1621 Old Newburg Road,Murray,KY,Brittany J Marchetti,Kopperud Realty,36.653999,-88.18326000000000
1,81065,32000,Residential,Single Family,Sold,Caldwell,"314 Sandlick Road, Princeton, KY",314 Sandlick Road,Princeton,KY,Billie K Farless,Farless Realty,37.1045661,-87.86897690000000
1,100219,32000,Residential,Single Family,Sold,Caldwell,"317 Baldwin Avenue, Princeton, KY",317 Baldwin Avenue,Princeton,KY,Billie K Farless,Farless Realty,35.21054230000000,-80.83054590000000
1,99787,32000,Residential,Single Family,Sold,Christian,"807 ROSE ST, Hopkinsville, KY",807 ROSE ST,Hopkinsville,KY,Joshua D Abner,Atlas Real Estate & Auction Services,38.0373158,-84.5005144
25,116289,32000,Residential,Single Family,Sold,Ballard,"231 S Fifth, Barlow, KY",231 S Fifth,Barlow,KY,Shulorn Hollowell Jeter,eXp Realty LLC,,
1,110122,32000,Residential,Single Family,Sold,Carlisle,"67 1st St, Arlington, KY",67 1st St,Arlington,KY,Amy Brock,Keller Williams Experience Realty Paducah Branch,,
19,115608,32000,Residential,Single Family,Sold,Carlisle,"89 Co Rd 1219, Arlington, KY",89 Co Rd 1219,Arlington,KY,Amy Brock,Keller Williams Experience Realty Paducah Branch,,
1,86016,32000,Residential,Single Family,Sold,Calloway,"409 S 6th St, Murray, KY",409 S 6th St,Murray,KY,Wilma Woods,Keller Williams Experience Realty,39.9436897,-75.1518368
1,89956,32000,Residential,Single Family,Sold,Calloway,"1009 Keniana, New Concord, KY",1009 Keniana,New Concord,KY,Stacey A Arnold,Crye-Leike Realty Services,-0.023559,37.906193
1,88500,32500,Residential,Single Family,Sold,Carlisle,"511 State Route 80 East, Arlington, KY",511 State Route 80 East,Arlington,KY,Ella E Burgess,C21 Service Realty,40.7269343,-98.6697482
11,114157,32500,Residential,Single Family,Sold,Carlisle,"14 Church St, Bardwell, KY",14 Church St,Bardwell,KY,Larry Kelley,River Country Real Estate,,
19,115853,32500,Residential,Single Family,Sold,Carlisle,"14 Church St, Bardwell, KY",14 Church St,Bardwell,KY,Larry Kelley,River Country Real Estate,,
1,85208,32600,Residential,Single Family,Expired,Ballard,"1970 Mayfield Rd, Wickliffe, KY",1970 Mayfield Rd,Wickliffe,KY,Deana C O'Neal,Bone & Co. Realtors,41.50846080000000,-81.59052900000000
1,75480,33000,Residential,Single Family,Sold,Carlisle,"44 SR 1371, Bardwell, KY",44 SR 1371,Bardwell,KY,Larry Kelley,River Country Real Estate,,
1,107927,33000,Residential,Single Family,Sold,Caldwell,"844 Maple, Princeton, KY",844 Maple,Princeton,KY,Tammy L Warner,Re/Max Southern Charm,,
1,96594,33705,Residential,Single Family,Sold,Christian,"105 Sanderson Dr, Hopkinsville, KY",105 Sanderson Dr,Hopkinsville,KY,Michael Harris,Harris Real Estate & Auction,,
1,102623,34000,Residential,Single Family,Sold,Carlisle,"377 U.S. Highway 62, Bardwell, KY",377 U.S. Highway 62,Bardwell,KY,Ella E Burgess,C21 Service Realty,36.8798935,-89.0065985
18,115672,34000,Residential,Single Family,Sold,Carlisle,"181 W State Route 80 W, Arlington, KY",181 W State Route 80 W,Arlington,KY,Deana C O'Neal,Bone & Co. Realtors,,
1,81915,34000,Residential,Single Family,Sold,Calloway,"12364 State Route 94 East, Murray, KY",12364 State Route 94 East,Murray,KY,Brenda C Rowland,Kopperud Realty,,
1,82211,34000,Residential,Single Family,Sold,Calloway,"1796 Glover, Kirksey, KY",1796 Glover,Kirksey,KY,Michael Brodie,1st Ky Realty and Auction,,
1,108945,34000,Residential,Single Family,Sold,Calloway,"1848 Old Salem Road, Murray, KY",1848 Old Salem Road,Murray,KY,Patricia A Cherry,Re/Max Real Estate Associates Murray,33.6393699,-84.00012510000000
1,98017,34900,Residential,Single Family,Expired,Calloway,"788 Old Salem Road, Murray, KY",788 Old Salem Road,Murray,KY,Patricia A Cherry,Re/Max Real Estate Associates Murray,33.6540343,-84.01030230000000
1,101535,34900,Residential,Single Family,Withdrawn,Calloway,"788 Old Salem Road, Murray, KY",788 Old Salem Road,Murray,KY,Patricia A Cherry,Re/Max Real Estate Associates Murray,33.6540343,-84.01030230000000
1,105824,34900,Residential,Single Family,Expired,Calloway,"127 Tearose Drive, New Concord, KY",127 Tearose Drive,New Concord,KY,Neena R Salazar,Markethouse Realty PLLC,39.3395561,-76.4111114
1,97818,34900,Residential,Single Family,Sold,Calloway,"617 N 4th St, Murray, KY",617 N 4th St,Murray,KY,Tracy G Williams,Kopperud Realty,,
1,90817,34900,Residential,Single Family,Withdrawn,Carlisle,"98 Front Street, Bardwell, KY",98 Front Street,Bardwell,KY,Larry Kelley,River Country Real Estate,40.7046148,-74.007536
17,116695,34900,Residential,Single Family,Sold,Calloway,"107 Spruce, Murray, KY",107 Spruce,Murray,KY,Shulorn Hollowell Jeter,eXp Realty LLC,,
1,101614,34900,Residential,Single Family,Withdrawn,Carlisle,"226 Front St., Bardwell, KY",226 Front St.,Bardwell,KY,Larry Kelley,River Country Real Estate,,
1,105969,34900,Residential,Single Family,Withdrawn,Carlisle,"226 Front St., Bardwell, KY",226 Front St.,Bardwell,KY,Larry Kelley,River Country Real Estate,,
1,85392,34900,Residential,Single Family,Withdrawn,Ballard,"250 N 6th street, Wickliffe, KY",250 N 6th street,Wickliffe,KY,Housman Partners,Sirk & Company Real Estate,39.95548430000000,-75.1499415
1,95565,34900,Residential,Single Family,Withdrawn,Ballard,"740 Beech Grove Road, Wickliffe, KY",740 Beech Grove Road,Wickliffe,KY,Larry Kelley,River Country Real Estate,54.9675092,-1.6392089
1,101591,34900,Residential,Single Family,Withdrawn,Ballard,"740 Beech Grove Road, Wickliffe, KY",740 Beech Grove Road,Wickliffe,KY,Larry Kelley,River Country Real Estate,54.9675092,-1.6392089
1,105950,34900,Residential,Single Family,Withdrawn,Ballard,"740 Beech Grove Road, Wickliffe, KY",740 Beech Grove Road,Wickliffe,KY,Larry Kelley,River Country Real Estate,54.9675092,-1.6392089
1,81149,35000,Residential,Single Family,Expired,Ballard,"524 W Third Street, LaCenter, KY",524 W Third Street,LaCenter,KY,Sharon K Carvell,Keller Williams Experience Realty Paducah Branch,34.10458420000000,-117.2918723
1,81627,35000,Residential,Single Family,Sold,Calloway,"709 Story, Murray, KY",709 Story,Murray,KY,Reno Anderson,Greys Properties LLC,,
1,90842,35000,Residential,Single Family,Withdrawn,Ballard,"352 Cumberland St., Wickliffe, KY",352 Cumberland St.,Wickliffe,KY,Larry Kelley,River Country Real Estate,,
1,90544,35000,Residential,Single Family,Sold,Calloway,"608 Duncan Trail, Dexter, KY",608 Duncan Trail,Dexter,KY,Cheryl A Roberts,Keller Williams Experience Realty,36.691487,-88.243375
5,105968,35000,Residential,Single Family,Active,Ballard,"332 Cumberland St., Wickliffe, KY",332 Cumberland St.,Wickliffe,KY,Larry Kelley,River Country Real Estate,,
0,94163,35000,Residential,Single Family,Sold,Calloway,"2302 OLD SALEM ROAD, Murray, KY",2302 OLD SALEM ROAD,Murray,KY,Richard Rollins,Kopperud Realty,33.6276558,-83.9990554
1,97576,35000,Residential,Single Family,Sold,Calloway,"9 Holly Tree Dr, Murray, KY",9 Holly Tree Dr,Murray,KY,Tracy G Williams,Kopperud Realty,53.2561394,-2.3941191
1,98990,35000,Residential,Single Family,Sold,Calloway,"509 S 6th Street, Murray, KY",509 S 6th Street,Murray,KY,Lynda Houck,Greys Properties LLC,39.9426228,-75.15200330000000
1,104942,35000,Residential,Single Family,Sold,Calloway,"43 Sun Valley Road, Murray, KY",43 Sun Valley Road,Murray,KY,Mark Fredrick,1st Ky Realty and Auction,,
1,112472,35000,Residential,Single Family,Sold,Calloway,"290 Cross Spann, Murray, KY",290 Cross Spann,Murray,KY,Pixie Campbell,Elite Realty,36.729273,-88.1288146
13,114218,35000,Residential,Single Family,Sold,Calloway,"32 Norris Dr, New Concord, KY",32 Norris Dr,New Concord,KY,Kim Musgrave,THE KIM MUSGRAVE TEAM,-37.758569,175.251703
1,83796,35000,Residential,Single Family,Sold,Carlisle,"92 Church St., Bardwell, KY",92 Church St.,Bardwell,KY,Larry Kelley,River Country Real Estate,-34.4304577,150.8941002
1,98115,35000,Residential,Single Family,Sold,Carlisle,"2462 State Route 1203, Bardwell, KY",2462 State Route 1203,Bardwell,KY,Ella E Burgess,C21 Service Realty,,
1,83183,35000,Residential,Single Family,Sold,Christian,"184 Hilltop Drive, Hopkinsville, KY",184 Hilltop Drive,Hopkinsville,KY,Karen Randels,Re/Max Southern Charm,40.5894313,-122.3581984
1,90954,35000,Residential,Single Family,Sold,Ballard,"140 North Second Street, Barlow, KY",140 North Second Street,Barlow,KY,Larry Kelley,River Country Real Estate,44.9844152,-93.269961
1,94210,35000,Residential,Single Family,Sold,Ballard,"319 Maple, LaCenter, KY",319 Maple,LaCenter,KY,Kimberlee R Copeland,Park Avenue Properties,,
18,118003,35000,Residential,Single Family,Sold,Ballard,"8481 Oscar Rd., LaCenter, KY",8481 Oscar Rd.,LaCenter,KY,Brian Wyatt,Keller Williams Experience Realty Paducah Branch,,
1,87394,35000,Residential,Single Family,Sold,Caldwell,"212 Linwood Dr, Princeton, KY",212 Linwood Dr,Princeton,KY,Jesse Case,RE/MAX Real Estate Services,36.0546188,-90.5054694
1,103487,35000,Residential,Single Family,Sold,Caldwell,"806 W Main Street, Princeton, KY",806 W Main Street,Princeton,KY,Jesse Case,RE/MAX Real Estate Services,,
24,120857,35000,Residential,Single Family,Sold,Caldwell,"639 Madisonville St, Princeton, KY",639 Madisonville St,Princeton,KY,Tom Waldrop,Trifecta Real Estate Services,37.1145158,-87.8744165
1,90762,35200,Residential,Single Family,Sold,Christian,"305 Wooldridge Rd, Hopkinsville, KY",305 Wooldridge Rd,Hopkinsville,KY,Michael Harris,Harris Real Estate & Auction,27.6845279,-97.3650434
1,97345,35200,Residential,Single Family,Sold,Calloway,"154 Old Shiloh Road, Murray, KY",154 Old Shiloh Road,Murray,KY,Michael Harris,Harris Real Estate & Auction,36.6996262,-88.1753511
1,87248,35500,Residential,Single Family,Expired,Christian,"104 S Fowler Ave, Hopkinsville, KY",104 S Fowler Ave,Hopkinsville,KY,Dustin Gilbert,Re/Max Southern Charm,36.8720895,-87.4964701
0,81280,35900,Residential,Single Family,Expired,Calloway,"133 Connie Dr, Murray, KY",133 Connie Dr,Murray,KY,Jennifer Cope,Keller Williams Experience Realty,34.0546664,-81.1113146
1,87274,36000,Residential,Single Family,Sold,Calloway,"2714 Thurmond Road, Murray, KY",2714 Thurmond Road,Murray,KY,Patricia A Cherry,Re/Max Real Estate Associates Murray,36.3658989,-80.9326189
1,85890,36000,Residential,Single Family,Sold,Ballard,"3599 Gum Corner Road, Wickliffe, KY",3599 Gum Corner Road,Wickliffe,KY,Jim P Lewis,RE/MAX Realty Group,37.0186828,-89.07215480000000
1,110688,36000,Residential,Single Family,Sold,Caldwell,"205 Stevens Avenue, Princeton, KY",205 Stevens Avenue,Princeton,KY,Ryals Farless,Farless Realty,32.9952601,-117.2634821
1,111312,36000,Residential,Single Family,Sold,Caldwell,"122 Baldwin Avenue, Princeton, KY",122 Baldwin Avenue,Princeton,KY,Ryals Farless,Farless Realty,35.2127218,-80.82886060000000
1,93428,36000,Residential,Single Family,Sold,Carlisle,"78 Elsey Avenue, Bardwell, KY",78 Elsey Avenue,Bardwell,KY,Nancy Black,RE/MAX Realty Group,36.8716712,-89.00827930000000
1,95753,36300,Residential,Single Family,Sold,Caldwell,"318 Williams Rd, Dawson Springs, KY",318 Williams Rd,Dawson Springs,KY,Michael Harris,Harris Real Estate & Auction,39.8892789,-82.9415499
1,102558,36500,Residential,Single Family,Expired,Calloway,"179 Brandon Rd, Hazel, KY",179 Brandon Rd,Hazel,KY,Keanu C Murphy,Trifecta Real Estate Services,41.4797818,-88.0994753
1,84623,36500,Residential,Single Family,Sold,Caldwell,"509 Dorroh St, Fredonia, KY",509 Dorroh St,Fredonia,KY,Natalie K Wyatt,KY Homes Realty,37.2049548,-88.0581787
1,86517,36500,Residential,Single Family,Sold,Caldwell,"111 N HIGHLAND, Princeton, KY",111 N HIGHLAND,Princeton,KY,Betty J Guess,C21 Land of Lakes Inc.,34.0737527,-118.338527
1,105216,36500,Residential,Single Family,Sold,Caldwell,"304 N Seminary Street, Princeton, KY",304 N Seminary Street,Princeton,KY,Ryals Farless,Farless Realty,40.9510561,-90.3653755
1,69216,37000,Residential,Single Family,Withdrawn,Ballard,"581 Clay St., Barlow, KY",581 Clay St.,Barlow,KY,Larry Kelley,River Country Real Estate,,
1,111923,37000,Residential,Single Family,Sold,Caldwell,"202 White School House Road, Dawson Springs, KY",202 White School House Road,Dawson Springs,KY,Brandon K Warfield,Coldwell Banker Service 1st Realty,37.16472410000000,-87.74285260000000
1,103657,37000,Residential,Single Family,Sold,Christian,"102 Hill Street, Hopkinsville, KY",102 Hill Street,Hopkinsville,KY,Amanda Cannon,Home Front Real Estate,,
1,104290,37250,Residential,Single Family,Sold,Caldwell,"325 N Plum, Princeton, KY",325 N Plum,Princeton,KY,Jesse Case,RE/MAX Real Estate Services,,
1,103298,37500,Residential,Single Family,Withdrawn,Ballard,"1970 Mayfield Road, Wickliffe, KY",1970 Mayfield Road,Wickliffe,KY,Larry Kelley,River Country Real Estate,41.50846080000000,-81.59052900000000
1,100245,37500,Residential,Single Family,Sold,Ballard,"1233 Beech Grove Road, Wickliffe, KY",1233 Beech Grove Road,Wickliffe,KY,Juli Sizemore,Keller Williams Experience Realty,37.9816472,-85.7236483
1,105941,37500,Residential,Single Family,Sold,Ballard,"6123 Woodville Road, Kevil, KY",6123 Woodville Road,Kevil,KY,Larry Kelley,River Country Real Estate,,
1,98741,37500,Residential,Single Family,Sold,Calloway,"800 Olive, Murray, KY",800 Olive,Murray,KY,Lynda Houck,Greys Properties LLC,,
26,118853,37500,Residential,Single Family,Sold,Calloway,"316 S 10th Street, Murray, KY",316 S 10th Street,Murray,KY,Thomas Mahoney,The Jeter Group Murray,39.9291681,-75.1616231
1,89631,37950,Residential,Single Family,Sold,Calloway,"814 Elm Street, Benton, KY",814 Elm Street,Benton,KY,Michael Harris,Harris Real Estate & Auction,,
1,105385,38000,Residential,Single Family,Sold,Calloway,"1864 State Line Road East, Hazel, KY",1864 State Line Road East,Hazel,KY,Janette L DeWitt,Kopperud Realty,36.503488,-88.29283700000000
1,106088,38000,Residential,Single Family,Sold,Ballard,"858 Monroe Street, Barlow, KY",858 Monroe Street,Barlow,KY,Sharon K Carvell,Keller Williams Experience Realty Paducah Branch,,
1,108418,38000,Residential,Single Family,Sold,Ballard,"433 N Third Street, Wickliffe, KY",433 N Third Street,Wickliffe,KY,Deana C O'Neal,Bone & Co. Realtors,33.4517707,-112.0698872
1,93040,38000,Residential,Single Family,Sold,Caldwell,"211 Harvey Lane, Princeton, KY",211 Harvey Lane,Princeton,KY,Ryals Farless,Farless Realty,41.9457073,-72.6238206
1,83014,38000,Residential,Single Family,Sold,Carlisle,"3080 STATE ROUTE 1591, Bardwell, KY",3080 STATE ROUTE 1591,Bardwell,KY,Nancy Black,RE/MAX Realty Group,37.355364,-79.278028
1,104390,38500,Residential,Single Family,Sold,Caldwell,"505 E Locust Street, Princeton, KY",505 E Locust Street,Princeton,KY,Jesse Case,RE/MAX Real Estate Services,43.0710862,-87.8915552
1,87690,38500,Residential,Single Family,Sold,Calloway,"1058 Outback Road, New Concord, KY",1058 Outback Road,New Concord,KY,Mary L Wooldridge,Kopperud Realty,,
1,107033,38500,Residential,Single Family,Sold,Calloway,"1400 Diuguid, Murray, KY",1400 Diuguid,Murray,KY,Lynda Houck,Greys Properties LLC,36.6343827,-88.3174928
1,96608,38520,Residential,Single Family,Sold,Christian,"1719 Jan Drive, Hopkinsville, KY",1719 Jan Drive,Hopkinsville,KY,Michael Harris,Harris Real Estate & Auction,,
1,80805,38900,Residential,Single Family,Expired,Carlisle,"5478 Highway 51, Arlington, KY",5478 Highway 51,Arlington,KY,Larry Kelley,River Country Real Estate,36.7952302,-89.01320920000000
27,119552,39000,Residential,Single Family,Active,Carlisle,"267 Elm St., Bardwell, KY",267 Elm St.,Bardwell,KY,Larry Kelley,River Country Real Estate,,
1,110262,39000,Residential,Single Family,Sold,Carlisle,"267 Elm St., Bardwell, KY",267 Elm St.,Bardwell,KY,Larry Kelley,River Country Real Estate,,
1,82762,39000,Residential,Single Family,Withdrawn,Calloway,"4591 Radio Road, Dexter, KY",4591 Radio Road,Dexter,KY,Karol Kemp Utley,Kopperud Realty,26.1542541,-81.7433128
1,82748,39000,Residential,Single Family,Sold,Calloway,"504 S 11th Street, Murray, KY",504 S 11th Street,Murray,KY,Karol Kemp Utley,Kopperud Realty,40.7387766,-74.2022222
1,109796,39500,Residential,Single Family,Sold,Caldwell,"509 S Seminary Street, Princeton, KY",509 S Seminary Street,Princeton,KY,Ryals Farless,Farless Realty,38.3505244,-87.5642075
1,90638,39900,Residential,Single Family,Expired,Carlisle,"12 CR 1120, Arlington, KY",12 CR 1120,Arlington,KY,Spencer Mouser,Keller Williams Experience Realty Paducah Branch,37.5223745,-86.1485826
1,95566,39900,Residential,Single Family,Withdrawn,Ballard,"222 North 2nd St., Wickliffe, KY",222 North 2nd St.,Wickliffe,KY,Larry Kelley,River Country Real Estate,42.906089,-73.69075410000000
1,104149,39900,Residential,Single Family,Expired,Ballard,"834 Monroe Street, Barlow, KY",834 Monroe Street,Barlow,KY,Cindy Hart,Fern Leaf Real Estate,,
1,110049,39900,Residential,Single Family,Sold,Caldwell,"318 S Jefferson Street, Princeton, KY",318 S Jefferson Street,Princeton,KY,Billie K Farless,Farless Realty,41.8672777,-87.642184
18,115244,39900,Residential,Single Family,Expired,Caldwell,"122 Baldwin Ave, Princeton, KY",122 Baldwin Ave,Princeton,KY,Darren Ramey,Farless Realty,40.7262802,-74.0621091
1,95567,39900,Residential,Single Family,Withdrawn,Ballard,"332 Cumberland St., Wickliffe, KY",332 Cumberland St.,Wickliffe,KY,Larry Kelley,River Country Real Estate,,
24,110661,39900,Residential,Single Family,Sold,Ballard,"740 Beech Grove Road, Wickliffe, KY",740 Beech Grove Road,Wickliffe,KY,Larry Kelley,River Country Real Estate,54.9675092,-1.6392089
0,101593,39900,Residential,Single Family,Withdrawn,Ballard,"222 North 2nd St., Wickliffe, KY",222 North 2nd St.,Wickliffe,KY,Larry Kelley,River Country Real Estate,42.906089,-73.69075410000000
20,119296,39900,Residential,Single Family,Sold,Ballard,"606 Westvaco Rd, Wickliffe, KY",606 Westvaco Rd,Wickliffe,KY,Jeffrey Garner,Housman Partners Real Estate,35.0947543,-88.6733718
0,101595,39900,Residential,Single Family,Withdrawn,Ballard,"222 North 2nd St., Wickliffe, KY",222 North 2nd St.,Wickliffe,KY,Larry Kelley,River Country Real Estate,42.906089,-73.69075410000000
1,101596,39900,Residential,Single Family,Withdrawn,Ballard,"222 North 2nd St., Wickliffe, KY",222 North 2nd St.,Wickliffe,KY,Larry Kelley,River Country Real Estate,42.906089,-73.69075410000000
1,105046,39900,Residential,Single Family,Withdrawn,Ballard,"212 Ohio Street, Wickliffe, KY",212 Ohio Street,Wickliffe,KY,David Nelson,Purchase Realty Group,42.8624541,-78.8673961
1,61800,39900,Residential,Single Family,Withdrawn,Carlisle,"98 Front Street, Bardwell, KY",98 Front Street,Bardwell,KY,Larry Kelley,River Country Real Estate,40.7046148,-74.007536
1,90818,39900,Residential,Single Family,Withdrawn,Carlisle,"226 Front St., Bardwell, KY",226 Front St.,Bardwell,KY,Larry Kelley,River Country Real Estate,,
1,90819,39900,Residential,Single Family,Withdrawn,Carlisle,"97 County Road 1302, Bardwell, KY",97 County Road 1302,Bardwell,KY,Larry Kelley,River Country Real Estate,40.1145168,-106.4954214
1,90821,39900,Residential,Single Family,Withdrawn,Carlisle,"200 Ashford St., Bardwell, KY",200 Ashford St.,Bardwell,KY,Larry Kelley,River Country Real Estate,40.6775061,-73.8860507
1,90823,39900,Residential,Single Family,Withdrawn,Carlisle,"275 Elsey St., Bardwell, KY",275 Elsey St.,Bardwell,KY,Larry Kelley,River Country Real Estate,43.4411053,-80.4117976
1,95570,39900,Residential,Single Family,Withdrawn,Carlisle,"226 Front St., Bardwell, KY",226 Front St.,Bardwell,KY,Larry Kelley,River Country Real Estate,,
1,95572,39900,Residential,Single Family,Withdrawn,Carlisle,"97 County Road 1302, Bardwell, KY",97 County Road 1302,Bardwell,KY,Larry Kelley,River Country Real Estate,40.1145168,-106.4954214
1,101616,39900,Residential,Single Family,Withdrawn,Carlisle,"97 County Road 1302, Bardwell, KY",97 County Road 1302,Bardwell,KY,Larry Kelley,River Country Real Estate,40.1145168,-106.4954214
1,85806,40000,Residential,Single Family,Expired,Ballard,"341 Ohio Street, Wickliffe, KY",341 Ohio Street,Wickliffe,KY,Betty Higdon,C21 Service Realty,42.8685442,-78.868753
1,96988,40000,Residential,Single Family,Sold,Ballard,"4894 Turner Landing Road, LaCenter, KY",4894 Turner Landing Road,LaCenter,KY,Larry Kelley,River Country Real Estate,37.1102765,-88.9720897
1,101508,40000,Residential,Single Family,Withdrawn,Ballard,"432 Ohio St., Wickliffe, KY",432 Ohio St.,Wickliffe,KY,Larry Kelley,River Country Real Estate,40.4172871,-82.90712300000000
11,105971,40000,Residential,Single Family,Sold,Ballard,"222 North 2nd St., Wickliffe, KY",222 North 2nd St.,Wickliffe,KY,Larry Kelley,River Country Real Estate,42.906089,-73.69075410000000
1,94786,40000,Residential,Single Family,Sold,Christian,"110 S Main, Pembroke, KY",110 S Main,Pembroke,KY,Scott E Estes,Exit One Real Estate,,
1,107266,40000,Residential,Single Family,Sold,Christian,"207 Wheeler St, Hopkinsville, KY",207 Wheeler St,Hopkinsville,KY,Joshua D Abner,Atlas Real Estate & Auction Services,42.6363977,-70.6804075
19,112937,40000,Residential,Single Family,Sold,Christian,"107 S Saltsman Dr, Hopkinsville, KY",107 S Saltsman Dr,Hopkinsville,KY,Ron Hughes,RE/MAX Realty Group,36.8851305,-87.50551780000000
1,81945,40000,Residential,Single Family,Sold,Caldwell,"625 Madisonville Street, Princeton, KY",625 Madisonville Street,Princeton,KY,Billie K Farless,Farless Realty,37.1137918,-87.8751355
1,90687,40000,Residential,Single Family,Sold,Caldwell,"204 S Donnivan Street, Princeton, KY",204 S Donnivan Street,Princeton,KY,Ryals Farless,Farless Realty,37.1090543,-87.88701880000000
1,90735,40000,Residential,Single Family,Sold,Caldwell,"102 Lakeshore Drive, Princeton, KY",102 Lakeshore Drive,Princeton,KY,Billie K Farless,Farless Realty,,
1,104370,40000,Residential,Single Family,Sold,Caldwell,"313 Bell Street, Princeton, KY",313 Bell Street,Princeton,KY,Billie K Farless,Farless Realty,,
1,104820,40000,Residential,Single Family,Sold,Caldwell,"825 W Main Street, Princeton, KY",825 W Main Street,Princeton,KY,Ryals Farless,Farless Realty,,
1,95461,40000,Residential,Single Family,Sold,Carlisle,"200 Ashford St., Bardwell, KY",200 Ashford St.,Bardwell,KY,Larry Kelley,River Country Real Estate,40.6775061,-73.8860507
1,106933,40000,Residential,Single Family,Sold,Carlisle,"158 Apple Tree Street, Arlington, KY",158 Apple Tree Street,Arlington,KY,Vince Carter,Carter Realty Group LLC,39.9550167,-75.1638118
17,119080,40000,Residential,Single Family,Sold,Carlisle,"6438 E State Route 80, Arlington, KY",6438 E State Route 80,Arlington,KY,Austin K Thomas,Keller Williams Experience Realty Paducah Branch,40.7269343,-98.6697482
1,81094,40000,Residential,Single Family,Sold,Calloway,"240 Hicks Cemetery Road, Murray, KY",240 Hicks Cemetery Road,Murray,KY,Brittany J Marchetti,Kopperud Realty,36.5740614,-88.21905270000000
1,86675,40000,Residential,Single Family,Sold,Calloway,"1103 Vine Street, Murray, KY",1103 Vine Street,Murray,KY,Velda Buchanan,Greys Properties LLC,34.09116,-118.32682
1,92213,40000,Residential,Single Family,Sold,Calloway,"1558 Almo Rd., Almo, KY",1558 Almo Rd.,Almo,KY,Beth Miller,Greys Properties LLC,36.6988893,-88.3869102
1,104508,40000,Residential,Single Family,Sold,Calloway,"1005 Main St, Murray, KY",1005 Main St,Murray,KY,Krista K Thompson,Kopperud Realty,,
1,104894,40000,Residential,Single Family,Sold,Calloway,"102 Garden, Murray, KY",102 Garden,Murray,KY,Rebecca Landolt,Loretta Jobs Realty,,
1,99716,40001,Residential,Single Family,Sold,Calloway,"421 Peeler Road, Dexter, KY",421 Peeler Road,Dexter,KY,Aleshia G Banks,Keller Williams Experience Realty,35.616418,-80.5241005
1,91826,40200,Residential,Single Family,Sold,Caldwell,"305 1/2 Cadiz Street, Princeton, KY",305 1/2 Cadiz Street,Princeton,KY,Billie K Farless,Farless Realty,-27.5085951,152.9918199
1,88741,40400,Residential,Single Family,Sold,Ballard,"310 W Third, LaCenter, KY",310 W Third,LaCenter,KY,Sara A Gipson,Sirk & Company Real Estate,,
7,121686,41000,Residential,Single Family,Sold,Christian,"822 Bell St, Hopkinsville, KY",822 Bell St,Hopkinsville,KY,Shannon Heim,Keller Williams Realty Clarksville,,
1,114955,41000,Residential,Single Family,Sold,Caldwell,"109 W Young Street, Princeton, KY",109 W Young Street,Princeton,KY,Ryals Farless,Farless Realty,30.4358563,-87.22328280000000
1,119205,41900,Residential,Single Family,Sold,Calloway,"301 N 5th Street, Murray, KY",301 N 5th Street,Murray,KY,William D Steele,Elite Realty Branch Murray,31.5646817,-97.1420963
1,79271,42000,Residential,Single Family,Expired,Ballard,"1970 Mayfield Rd, Wickliffe, KY",1970 Mayfield Rd,Wickliffe,KY,Cynthia M Jones,C21 Service Realty,41.50846080000000,-81.59052900000000
1,88551,42000,Residential,Single Family,Sold,Caldwell,"300 White St., Princeton, KY",300 White St.,Princeton,KY,Amy Hughes,Elite Realty,,
1,98879,42000,Residential,Single Family,Expired,Caldwell,"806 W MAIN ST, Princeton, KY",806 W MAIN ST,Princeton,KY,Lori A Guess,C21 Land of Lakes Inc.,,
1,94764,42000,Residential,Single Family,Sold,Ballard,"827 Liberty Street, Barlow, KY",827 Liberty Street,Barlow,KY,David Nelson,Purchase Realty Group,,
31,113965,42195,Residential,Single Family,Sold,Calloway,"307 3rd Street, Hazel, KY",307 3rd Street,Hazel,KY,Becky Spann,Elite Realty Branch Murray,,
1,91733,42500,Residential,Single Family,Sold,Calloway,"67 Williford, Murray, KY",67 Williford,Murray,KY,Mary L Wooldridge,Kopperud Realty,,
1,103094,42500,Residential,Single Family,Sold,Calloway,"102 W Whisper Dr, Murray, KY",102 W Whisper Dr,Murray,KY,Glenda Ritchie,1st Realty Group,43.2435668,-115.8413316
1,113533,42500,Residential,Single Family,Sold,Caldwell,"307 Akers, Princeton, KY",307 Akers,Princeton,KY,Thomas F Hughes,Coldwell Banker Service 1st Realty,,
1,113534,42500,Residential,Single Family,Sold,Caldwell,"100 Cherry, Princeton, KY",100 Cherry,Princeton,KY,Thomas F Hughes,Coldwell Banker Service 1st Realty,,
1,113535,42500,Residential,Single Family,Sold,Caldwell,"520 Hopkinsville St, Princeton, KY",520 Hopkinsville St,Princeton,KY,Thomas F Hughes,Coldwell Banker Service 1st Realty,37.1976701,-87.1937691
1,113536,42500,Residential,Single Family,Sold,Caldwell,"303 Nichols, Princeton, KY",303 Nichols,Princeton,KY,Thomas F Hughes,Coldwell Banker Service 1st Realty,,
1,113537,42500,Residential,Single Family,Sold,Caldwell,"610 Maple St, Princeton, KY",610 Maple St,Princeton,KY,Thomas F Hughes,Coldwell Banker Service 1st Realty,,
1,113542,42500,Residential,Single Family,Sold,Caldwell,"411 Willow, Princeton, KY",411 Willow,Princeton,KY,Thomas F Hughes,Coldwell Banker Service 1st Realty,,
1,113543,42500,Residential,Single Family,Sold,Caldwell,"507 Willow, Princeton, KY",507 Willow,Princeton,KY,Thomas F Hughes,Coldwell Banker Service 1st Realty,,
1,113544,42500,Residential,Single Family,Sold,Caldwell,"101 Good, Princeton, KY",101 Good,Princeton,KY,Thomas F Hughes,Coldwell Banker Service 1st Realty,,
1,113546,42500,Residential,Single Family,Sold,Caldwell,"424 S Harrison, Princeton, KY",424 S Harrison,Princeton,KY,Thomas F Hughes,Coldwell Banker Service 1st Realty,,
1,113548,42500,Residential,Single Family,Sold,Caldwell,"402 Dollar, Princeton, KY",402 Dollar,Princeton,KY,Thomas F Hughes,Coldwell Banker Service 1st Realty,,
1,103093,42550,Residential,Single Family,Sold,Calloway,"1003 Main Street, Murray, KY",1003 Main Street,Murray,KY,Krista K Thompson,Kopperud Realty,,
1,76354,42900,Residential,Single Family,Withdrawn,Caldwell,"407 Dollar Street, Princeton, KY",407 Dollar Street,Princeton,KY,Jesse Case,RE/MAX Real Estate Services,,
1,89574,42900,Residential,Single Family,Sold,Ballard,"411 Church Street, Barlow, KY",411 Church Street,Barlow,KY,David Nelson,Purchase Realty Group,35.9155174,-79.06028530000000
1,88632,43000,Residential,Single Family,Withdrawn,Christian,"120 Hill St, Hopkinsville, KY",120 Hill St,Hopkinsville,KY,Tana Loden,Re/Max Southern Charm,42.61098,-70.966379
1,93933,43000,Residential,Single Family,Hold,Calloway,"267 navigator, Murray, KY",267 navigator,Murray,KY,Rose Lee Davis,Rose Lee Realty,,
1,95404,44000,Residential,Single Family,Sold,Calloway,"6694 E State Line Rd, Hazel, KY",6694 E State Line Rd,Hazel,KY,Stacey A Arnold,Crye-Leike Realty Services,36.5035561,-89.0981639
1,96597,44405,Residential,Single Family,Sold,Christian,"3006 Seminole, Hopkinsville, KY",3006 Seminole,Hopkinsville,KY,Michael Harris,Harris Real Estate & Auction,,
1,89220,44500,Residential,Single Family,Withdrawn,Ballard,"110 Chestnut, LaCenter, KY",110 Chestnut,LaCenter,KY,Housman Partners,Sirk & Company Real Estate,,
1,103637,44500,Residential,Single Family,Sold,Ballard,"183 S 5th Street, Barlow, KY",183 S 5th Street,Barlow,KY,Sharon K Carvell,Keller Williams Experience Realty Paducah Branch,39.947553,-75.1493354
1,98123,44500,Residential,Single Family,Sold,Calloway,"406 N 5th, Murray, KY",406 N 5th,Murray,KY,Krista K Thompson,Kopperud Realty,,
1,102292,44900,Residential,Single Family,Expired,Ballard,"669 Olive Street, LaCenter, KY",669 Olive Street,LaCenter,KY,Larry Kelley,River Country Real Estate,38.6355848,-90.2250112
1,110980,44900,Residential,Single Family,Withdrawn,Ballard,"669 Olive Street, LaCenter, KY",669 Olive Street,LaCenter,KY,Larry Kelley,River Country Real Estate,38.6355848,-90.2250112
1,104140,44900,Residential,Single Family,Expired,Carlisle,"158 Apple Tree, Arlington, KY",158 Apple Tree,Arlington,KY,Leslie Heath,Keller Williams Experience Realty Paducah Branch,,
1,80745,45000,Residential,Single Family,Sold,Calloway,"0 Barnacle Drive, New Concord, KY",0 Barnacle Drive,New Concord,KY,Carrie L Armstrong,Keller Williams Experience Realty,,
1,106414,45000,Residential,Single Family,Expired,Carlisle,"201 Hobbs Street, Arlington, KY",201 Hobbs Street,Arlington,KY,Deana C O'Neal,Bone & Co. Realtors,-37.8079221,144.893035
1,42211,45000,Residential,Single Family,Withdrawn,Ballard,"222 North 2nd St., Wickliffe, KY",222 North 2nd St.,Wickliffe,KY,Larry Kelley,River Country Real Estate,42.906089,-73.69075410000000
1,80768,45000,Residential,Single Family,Sold,Calloway,"600 4th Street, Hazel, KY",600 4th Street,Hazel,KY,Bonnie Byerly,Chavis Real Estate and Auction,,
1,42213,45000,Residential,Single Family,Withdrawn,Ballard,"332 Cumberland St., Wickliffe, KY",332 Cumberland St.,Wickliffe,KY,Larry Kelley,River Country Real Estate,,
1,101937,45000,Residential,Single Family,Sold,Calloway,"1007 Main Street, Murray, KY",1007 Main Street,Murray,KY,Krista K Thompson,Kopperud Realty,,
1,42214,45000,Residential,Single Family,Withdrawn,Ballard,"352 Cumberland St., Wickliffe, KY",352 Cumberland St.,Wickliffe,KY,Larry Kelley,River Country Real Estate,,
1,104952,45000,Residential,Single Family,Sold,Calloway,"110 Ash Street, Murray, KY",110 Ash Street,Murray,KY,John H Kopperud,Kopperud Realty,36.0487196,-114.9705373
1,90840,45000,Residential,Single Family,Withdrawn,Ballard,"222 North 2nd St., Wickliffe, KY",222 North 2nd St.,Wickliffe,KY,Larry Kelley,River Country Real Estate,42.906089,-73.69075410000000
1,106827,45000,Residential,Single Family,Sold,Calloway,"207 Barnett Street, Hazel, KY",207 Barnett Street,Hazel,KY,Aleshia G Banks,Elite Realty Branch Murray,18.4617873,-77.9147607
1,90841,45000,Residential,Single Family,Withdrawn,Ballard,"332 Cumberland St., Wickliffe, KY",332 Cumberland St.,Wickliffe,KY,Larry Kelley,River Country Real Estate,,
23,111686,45000,Residential,Single Family,Sold,Calloway,"303 S 11th Street, Murray, KY",303 S 11th Street,Murray,KY,John H Kopperud,Kopperud Realty,40.7387766,-74.2022222
1,95564,45000,Residential,Single Family,Withdrawn,Ballard,"720 Beech Grove Rd, Wickliffe, KY",720 Beech Grove Rd,Wickliffe,KY,Larry Kelley,River Country Real Estate,,
10,114079,45000,Residential,Single Family,Sold,Calloway,"503 N 5th Street, Murray, KY",503 N 5th Street,Murray,KY,Lynda Houck,Greys Properties LLC,31.5646817,-97.1420963
1,95569,45000,Residential,Single Family,Withdrawn,Ballard,"652 N Fourth St., Wickliffe, KY",652 N Fourth St.,Wickliffe,KY,Larry Kelley,River Country Real Estate,38.2576281,-85.7563682
7,119545,45000,Residential,Single Family,Sold,Calloway,"611 S Ninth, Murray, KY",611 S Ninth,Murray,KY,Carrie L Armstrong,Keller Williams Experience Realty,,
1,101590,45000,Residential,Single Family,Withdrawn,Ballard,"720 Beech Grove Rd, Wickliffe, KY",720 Beech Grove Rd,Wickliffe,KY,Larry Kelley,River Country Real Estate,,
1,81654,45000,Residential,Single Family,Sold,Ballard,"7229 Gage Road, Kevil, KY",7229 Gage Road,Kevil,KY,Larry Kelley,River Country Real Estate,,
1,101611,45000,Residential,Single Family,Withdrawn,Ballard,"652 N Fourth St., Wickliffe, KY",652 N Fourth St.,Wickliffe,KY,Larry Kelley,River Country Real Estate,38.2576281,-85.7563682
1,105972,45000,Residential,Single Family,Sold,Ballard,"652 N Fourth St., Wickliffe, KY",652 N Fourth St.,Wickliffe,KY,Larry Kelley,River Country Real Estate,38.2576281,-85.7563682
1,105951,45000,Residential,Single Family,Withdrawn,Ballard,"720 Beech Grove Rd, Wickliffe, KY",720 Beech Grove Rd,Wickliffe,KY,Larry Kelley,River Country Real Estate,,
1,94903,45000,Residential,Single Family,Sold,Christian,"3519 Bahama Drive, Hopkinsville, KY",3519 Bahama Drive,Hopkinsville,KY,Scott E Estes,Exit One Real Estate,32.7583911,-96.8641142
1,96018,45000,Residential,Single Family,Withdrawn,Carlisle,"377 Highway 62, Bardwell, KY",377 Highway 62,Bardwell,KY,Larry Kelley,River Country Real Estate,34.6682162,-110.3223784
1,99768,45000,Residential,Single Family,Sold,Christian,"734 Rose Drive, Hopkinsville, KY",734 Rose Drive,Hopkinsville,KY,Joshua D Abner,Atlas Real Estate & Auction Services,,
1,80540,45000,Residential,Single Family,Sold,Caldwell,"301 Bell Street, Princeton, KY",301 Bell Street,Princeton,KY,Jesse Case,RE/MAX Real Estate Services,,
1,94247,45000,Residential,Single Family,Sold,Caldwell,"325 Dawson Road, Princeton, KY",325 Dawson Road,Princeton,KY,Billie K Farless,Farless Realty,36.4857869,-96.129959
1,100722,45000,Residential,Single Family,Sold,Caldwell,"7351 Cadiz Road, Princeton, KY",7351 Cadiz Road,Princeton,KY,Crystal Jeter,Keller Williams Experience Realty The Jeter Group,40.0463493,-81.5683926
26,113573,45000,Residential,Single Family,Sold,Caldwell,"110 W Wilson Street, Fredonia, KY",110 W Wilson Street,Fredonia,KY,Darren Ramey,Farless Realty,50.652518,21.2562224
2,114881,45000,Residential,Single Family,Sold,Caldwell,"67 Beshear Lane, Princeton, KY",67 Beshear Lane,Princeton,KY,Sherry G Thomas,Keller Williams Elite,37.1251436,-87.84788020000000
1,74295,45000,Residential,Single Family,Sold,Carlisle,"160 Elm Street, Bardwell, KY",160 Elm Street,Bardwell,KY,Jeremy Lee,C21 Service Realty,,
1,105948,45000,Residential,Single Family,Sold,Carlisle,"349 Elsey Street, Bardwell, KY",349 Elsey Street,Bardwell,KY,Larry Kelley,River Country Real Estate,35.3602845,-119.0682277
1,110261,45000,Residential,Single Family,Sold,Carlisle,"182 Elm St., Bardwell, KY",182 Elm St.,Bardwell,KY,Larry Kelley,River Country Real Estate,,
1,98521,45500,Residential,Single Family,Sold,Carlisle,"35 Broadway St, Arlington, KY",35 Broadway St,Arlington,KY,Lisa Humphrey,Elite Realty,,
1,97584,45500,Residential,Single Family,Sold,Calloway,"401 S 10th St, Murray, KY",401 S 10th St,Murray,KY,Sue Ann Stevens,Keller Williams Experience Realty,39.9444886,-75.1581659
1,87299,45900,Residential,Single Family,Expired,Ballard,"411 Church Street, Barlow, KY",411 Church Street,Barlow,KY,Sharon K Carvell,Keller Williams Experience Realty Paducah Branch,35.9155174,-79.06028530000000
1,79076,45900,Residential,Single Family,Withdrawn,Calloway,"847 Ridge Road, New Concord, KY",847 Ridge Road,New Concord,KY,Velda Buchanan,Greys Properties LLC,,
1,78896,46000,Residential,Single Family,Sold,Calloway,"114 N 7th, Murray, KY",114 N 7th,Murray,KY,Constance L Austin,Keller Williams Experience Realty,40.7188724,-73.95968720000000
1,84706,46000,Residential,Single Family,Withdrawn,Carlisle,"544 S.R. 80 E, Arlington, KY",544 S.R. 80 E,Arlington,KY,Deana C O'Neal,Bone & Co. Realtors,26.6730986,-80.7201941
1,85640,46000,Residential,Single Family,Sold,Calloway,"1312 Sycamore, Murray, KY",1312 Sycamore,Murray,KY,Lynda Houck,Greys Properties LLC,,
1,104384,46500,Residential,Single Family,Sold,Carlisle,"390 Cheatham St, Bardwell, KY",390 Cheatham St,Bardwell,KY,Richard Chapman,Barger Realty,29.8768524,-97.93611710000000
1,81796,46500,Residential,Single Family,Sold,Caldwell,"567 E White Sulphur Road, Fredonia, KY",567 E White Sulphur Road,Fredonia,KY,Jesse Case,RE/MAX Real Estate Services,34.3210565,-83.79380500000000
1,87689,46500,Residential,Single Family,Sold,Caldwell,"915 W Main, Princeton, KY",915 W Main,Princeton,KY,Jesse Case,RE/MAX Real Estate Services,,
1,108475,46500,Residential,Single Family,Sold,Ballard,"639 Court Street, Wickliffe, KY",639 Court Street,Wickliffe,KY,David Nelson,Purchase Realty Group,40.6700288,-74.0015457
1,95101,46640,Residential,Single Family,Sold,Calloway,"705 Sycamore, Murray, KY",705 Sycamore,Murray,KY,Tracy G Williams,Kopperud Realty,,
1,97081,47000,Residential,Single Family,Sold,Calloway,"206 S 11th, Murray, KY",206 S 11th,Murray,KY,Richard Rollins,Kopperud Realty,,
1,98262,47000,Residential,Single Family,Sold,Calloway,"305 N 17th St, Murray, KY",305 N 17th St,Murray,KY,Keanu C Murphy,Trifecta Real Estate Services,39.9588435,-75.1671401
1,102524,47000,Residential,Single Family,Sold,Christian,"405 Pineridge Drive, Hopkinsville, KY",405 Pineridge Drive,Hopkinsville,KY,Keanu C Murphy,Trifecta Real Estate Services,47.6121388,-122.641534
1,85444,47000,Residential,Single Family,Sold,Caldwell,"16186 Dawson Road, Dawson Springs, KY",16186 Dawson Road,Dawson Springs,KY,Jesse Case,RE/MAX Real Estate Services,,
1,90853,47000,Residential,Single Family,Sold,Caldwell,"111 Oak Dr, Princeton, KY",111 Oak Dr,Princeton,KY,Darren Ramey,Farless Realty,,
11,113161,47000,Residential,Single Family,Sold,Caldwell,"14166 Ky Highway 672, Princeton, KY",14166 Ky Highway 672,Princeton,KY,Brandon K Warfield,Coldwell Banker Service 1st Realty,37.8393332,-84.2700179
1,42212,47500,Residential,Single Family,Withdrawn,Ballard,"652 N Fourth St., Wickliffe, KY",652 N Fourth St.,Wickliffe,KY,Larry Kelley,River Country Real Estate,38.2576281,-85.7563682
16,118935,47500,Residential,Single Family,Sold,Caldwell,"701 W Main, Princeton, KY",701 W Main,Princeton,KY,Brandon K Warfield,Keller Williams Experience Realty Eddyville Branch,,
1,90843,47500,Residential,Single Family,Withdrawn,Ballard,"652 N Fourth St., Wickliffe, KY",652 N Fourth St.,Wickliffe,KY,Larry Kelley,River Country Real Estate,38.2576281,-85.7563682
17,115096,47500,Residential,Single Family,Sold,Ballard,"316 LISA DRIVE, Wickliffe, KY",316 LISA DRIVE,Wickliffe,KY,Sharon K Carvell,Keller Williams Experience Realty Paducah Branch,,
1,104728,47500,Residential,Single Family,Sold,Calloway,"909 Coldwater Road, Murray, KY",909 Coldwater Road,Murray,KY,Lynda Houck,Greys Properties LLC,41.1877883,-85.1324533
5,113987,47900,Residential,Single Family,Expired,Ballard,"362 Olive, LaCenter, KY",362 Olive,LaCenter,KY,Claudia Weber Bell,Carol Farthing Real Estate,,
1,89317,48000,Residential,Single Family,Withdrawn,Calloway,"406 N 5th, Murray, KY",406 N 5th,Murray,KY,Krista K Thompson,Kopperud Realty,,
1,87986,48000,Residential,Single Family,Expired,Ballard,"896 County Farm Road, Wickliffe, KY",896 County Farm Road,Wickliffe,KY,Karen Stone,C21 Service Realty,,
1,82757,48000,Residential,Single Family,Sold,Calloway,"805 North 18th Street, Murray, KY",805 North 18th Street,Murray,KY,Karol Kemp Utley,Kopperud Realty,32.4700294,-99.7287178
1,83410,48000,Residential,Single Family,Sold,Caldwell,"306 Robin Road, Princeton, KY",306 Robin Road,Princeton,KY,Ryals Farless,Farless Realty,40.9324682,-74.0747305
1,108969,48000,Residential,Single Family,Sold,Caldwell,"18 Gosche Hollow Road, Fredonia, KY",18 Gosche Hollow Road,Fredonia,KY,Jeri A Hunt,Farless Realty,37.2342787,-87.96587890000000
19,116246,48000,Residential,Single Family,Sold,Caldwell,"13689 Dawson Road, Dawson Springs, KY",13689 Dawson Road,Dawson Springs,KY,Ryals Farless,Farless Realty,,
1,96606,48500,Residential,Single Family,Sold,Caldwell,"118 1/2 Dawson Road, Princeton, KY",118 1/2 Dawson Road,Princeton,KY,Ryals Farless,Farless Realty,-36.9758399,174.8938389
1,96595,48685,Residential,Single Family,Sold,Christian,"200 E Parkway Dr, Hopkinsville, KY",200 E Parkway Dr,Hopkinsville,KY,Michael Harris,Harris Real Estate & Auction,33.3335564,-105.5826581
1,82597,48900,Residential,Single Family,Expired,Ballard,"573 Kentucky Ave, Kevil, KY",573 Kentucky Ave,Kevil,KY,Vera Stone,4 Rivers Realty,39.7595836,-86.1702268
1,84200,49000,Residential,Single Family,Withdrawn,Caldwell,"207 Dawson Road, Princeton, KY",207 Dawson Road,Princeton,KY,Suzanne Duncan,RE/MAX Real Estate Services,-36.9758399,174.8938389
1,81838,49000,Residential,Single Family,Expired,Caldwell,"1101 N JEFFERSON, Princeton, KY",1101 N JEFFERSON,Princeton,KY,Melissa Wynn,Keller Williams Experience Realty Eddyville Branch,41.8858171,-87.6427862
1,102444,49000,Residential,Single Family,Sold,Ballard,"34 Linda Drive, Wickliffe, KY",34 Linda Drive,Wickliffe,KY,Nancy Black,RE/MAX Realty Group,42.9312599,-78.7571261
1,92183,49000,Residential,Single Family,Expired,Caldwell,"202 Garrett, Princeton, KY",202 Garrett,Princeton,KY,Billie K Farless,Farless Realty,,
8,121946,49000,Residential,Single Family,Contract Recd - See Rmrks,Caldwell,"805 Mechanic St, Princeton, KY",805 Mechanic St,Princeton,KY,Sherry G Thomas,Keller Williams Elite,,
1,93672,49000,Residential,Single Family,Expired,Caldwell,"410 N Jefferson St, Princeton, KY",410 N Jefferson St,Princeton,KY,Billie K Farless,Farless Realty,41.8892281,-87.64303630000000
1,74539,49000,Residential,Single Family,Sold,Calloway,"11854 E 94, Murray, KY",11854 E 94,Murray,KY,Judy E Denton,Greys Properties LLC,,
1,80919,49000,Residential,Single Family,Sold,Calloway,"219 S 15th Street, Murray, KY",219 S 15th Street,Murray,KY,Cynthia L Akins,RE/MAX Real Estate Associates,40.2633627,-76.8649681
1,103538,49000,Residential,Single Family,Sold,Calloway,"235 Wedgewood Drive, New Concord, KY",235 Wedgewood Drive,New Concord,KY,Becky Spann,Keller Williams Experience Realty,,
1,110277,49000,Residential,Single Family,Sold,Calloway,"19 Lane Street, Dexter, KY",19 Lane Street,Dexter,KY,Cathy A Mitchell,Greys Properties LLC,,
1,76582,49900,Residential,Single Family,Expired,Carlisle,"340 HIGHWAY 80 WEST, Arlington, KY",340 HIGHWAY 80 WEST,Arlington,KY,Nancy Black,RE/MAX Realty Group,40.7269343,-98.6697482
1,80047,49900,Residential,Single Family,Withdrawn,Caldwell,"5114 Highway 128, Princeton, KY",5114 Highway 128,Princeton,KY,Jesse Case,RE/MAX Real Estate Services,38.67976970000000,-122.8358289
1,78072,49900,Residential,Single Family,Expired,Carlisle,"92 Church Street, Bardwell, KY",92 Church Street,Bardwell,KY,Laura Petrie,Sirk & Company Real Estate,,
1,85458,49900,Residential,Single Family,Sold,Ballard,"659 Blandville Road, Wickliffe, KY",659 Blandville Road,Wickliffe,KY,Shea McGuire,C21 Service Realty,36.946557,-88.9560116
11,116480,49900,Residential,Single Family,Expired,Calloway,"32 Norris Dr, New Concord, KY",32 Norris Dr,New Concord,KY,Kim Musgrave,THE KIM MUSGRAVE TEAM,-37.758569,175.251703
1,82042,49900,Residential,Single Family,Withdrawn,Caldwell,"306 Baldwin Avenue, Princeton, KY",306 Baldwin Avenue,Princeton,KY,Suzanne Duncan,RE/MAX Real Estate Services,35.211088,-80.83064450000000
1,103658,49900,Residential,Single Family,Sold,Ballard,"196 N 5th, Barlow, KY",196 N 5th,Barlow,KY,Jessica Housman,Housman Partners Real Estate,,
1,61348,49900,Residential,Single Family,Withdrawn,Ballard,"740 Beech Grove Road, Wickliffe, KY",740 Beech Grove Road,Wickliffe,KY,Larry Kelley,River Country Real Estate,54.9675092,-1.6392089
1,93538,49900,Residential,Single Family,Sold,Caldwell,"312 N Eagle Street, Princeton, KY",312 N Eagle Street,Princeton,KY,Jesse Case,RE/MAX Real Estate Services,44.6256536,-93.7743905
1,90839,49900,Residential,Single Family,Withdrawn,Ballard,"740 Beech Grove Road, Wickliffe, KY",740 Beech Grove Road,Wickliffe,KY,Larry Kelley,River Country Real Estate,54.9675092,-1.6392089
1,97705,49900,Residential,Single Family,Withdrawn,Ballard,"6123 Woodville Road, Kevil, KY",6123 Woodville Road,Kevil,KY,Larry Kelley,River Country Real Estate,,
1,101267,49900,Residential,Single Family,Withdrawn,Ballard,"731 Broadway, Wickliffe, KY",731 Broadway,Wickliffe,KY,Larry Kelley,River Country Real Estate,,
1,103038,49900,Residential,Single Family,Withdrawn,Ballard,"5713 Woodville Road, Kevil, KY",5713 Woodville Road,Kevil,KY,Sharon Sanderson,Your HOME Team Realtors,,
1,104354,49900,Residential,Single Family,Withdrawn,Ballard,"883 Broadway, Barlow, KY",883 Broadway,Barlow,KY,Larry Kelley,River Country Real Estate,40.9638638,-73.8855306
1,105952,49900,Residential,Single Family,Withdrawn,Ballard,"731 Broadway, Wickliffe, KY",731 Broadway,Wickliffe,KY,Larry Kelley,River Country Real Estate,,
16,110257,49900,Residential,Single Family,Active,Carlisle,"211 Jackson St., Bardwell, KY",211 Jackson St.,Bardwell,KY,Larry Kelley,River Country Real Estate,,
5,115024,49900,Residential,Single Family,Withdrawn,Calloway,"409 S 6th Street, Murray, KY",409 S 6th Street,Murray,KY,Jeff W Smith,RE/MAX Real Estate Associates,39.9436897,-75.1518368
1,79536,49999,Residential,Single Family,Withdrawn,Calloway,"404 S 10th, Murray, KY",404 S 10th,Murray,KY,Michael D Conley,Keller Williams Experience Realty,,
1,80807,50000,Residential,Single Family,Expired,Carlisle,"7 Washington St., Arlington, KY",7 Washington St.,Arlington,KY,Larry Kelley,River Country Real Estate,41.902718,-71.09820860000000
1,80688,50000,Residential,Single Family,Sold,Caldwell,"103 Cumberland Drive, Princeton, KY",103 Cumberland Drive,Princeton,KY,Ryals Farless,Farless Realty,-27.5306875,153.2234105
6,120976,50000,Residential,Single Family,Active,Caldwell,"603 E Market Street, Princeton, KY",603 E Market Street,Princeton,KY,Brandon K Warfield,Keller Williams Experience Realty Eddyville Branch,36.0723524,-79.7837325
1,82381,50000,Residential,Single Family,Sold,Caldwell,"102 S McNary, Princeton, KY",102 S McNary,Princeton,KY,Billie K Farless,Farless Realty,,
1,65592,50000,Residential,Single Family,Withdrawn,Ballard,"720 Beech Grove Rd, Wickliffe, KY",720 Beech Grove Rd,Wickliffe,KY,Larry Kelley,River Country Real Estate,,
1,91460,50000,Residential,Single Family,Sold,Caldwell,"424 E Main Street, Princeton, KY",424 E Main Street,Princeton,KY,Ryals Farless,Farless Realty,,
1,90838,50000,Residential,Single Family,Withdrawn,Ballard,"720 Beech Grove Rd, Wickliffe, KY",720 Beech Grove Rd,Wickliffe,KY,Larry Kelley,River Country Real Estate,,
1,94058,50000,Residential,Single Family,Sold,Caldwell,"606 Marion Rd, Princeton, KY",606 Marion Rd,Princeton,KY,Marilyn J White,KY Homes Realty,-34.9752107,138.5556485
1,90813,50000,Residential,Single Family,Withdrawn,Carlisle,"349 Elsey Street, Bardwell, KY",349 Elsey Street,Bardwell,KY,Larry Kelley,River Country Real Estate,35.3602845,-119.0682277
1,100608,50000,Residential,Single Family,Sold,Caldwell,"800 N Jefferson, Princeton, KY",800 N Jefferson,Princeton,KY,Brock C Thomas,Farless Realty,41.8901529,-87.64302160000000
1,101619,50000,Residential,Single Family,Withdrawn,Carlisle,"349 Elsey Street, Bardwell, KY",349 Elsey Street,Bardwell,KY,Larry Kelley,River Country Real Estate,35.3602845,-119.0682277
1,81508,50000,Residential,Single Family,Sold,Ballard,"228 Fredrick Lane, Wickliffe, KY",228 Fredrick Lane,Wickliffe,KY,Sharon K Carvell,Keller Williams Experience Realty Paducah Branch,45.3266536,-65.6528959
1,88788,50000,Residential,Single Family,Sold,Ballard,"871 Barlow Rd, Wickliffe, KY",871 Barlow Rd,Wickliffe,KY,Michael Harris,Harris Real Estate & Auction,,
1,108401,50000,Residential,Single Family,Sold,Ballard,"7483 Bandana Road, Kevil, KY",7483 Bandana Road,Kevil,KY,Vince Carter,Carter Realty Group LLC,37.1714739,-88.9288212
24,117912,50000,Residential,Single Family,Sold,Ballard,"274 Olive Street, LaCenter, KY",274 Olive Street,LaCenter,KY,Kelly Hack,Housman Partners Real Estate,38.6355848,-90.2250112
0,90235,50000,Residential,Single Family,Sold,Christian,"211 Apache Dr, Hopkinsville, KY",211 Apache Dr,Hopkinsville,KY,*Not in *Regional MLS,*Not in Regional MLS,40.3215992,-74.3346913
1,94479,50000,Residential,Single Family,Sold,Carlisle,"80 Orchard Street, Bardwell, KY",80 Orchard Street,Bardwell,KY,Ella E Burgess,C21 Service Realty,40.7177882,-73.9901895
1,81108,50000,Residential,Single Family,Sold,Calloway,"176 E Whisper Drive, Murray, KY",176 E Whisper Drive,Murray,KY,John H Kopperud,Kopperud Realty,33.7286741,-84.6825551
1,89339,50000,Residential,Single Family,Sold,Calloway,"310 Irvan, Calloway Cnt, KY",310 Irvan,Calloway Cnt,KY,Rebecca Landolt,Keller Williams Experience Realty,,
1,98979,50000,Residential,Single Family,Sold,Calloway,"67 Williford Drive, Murray, KY",67 Williford Drive,Murray,KY,Janette L DeWitt,Kopperud Realty,31.2178101,-84.2109953
1,100305,50000,Residential,Single Family,Sold,Calloway,"39 Magness Rd, Hardin, KY",39 Magness Rd,Hardin,KY,Bonnie S McCuiston,C21 Service Realty Inc. Marshall County,51.2089305,1.3791523
1,108700,50000,Residential,Single Family,Sold,Calloway,"82 Casey Drive, New Concord, KY",82 Casey Drive,New Concord,KY,Kalie D Vowell,Re/Max Real Estate Associates Murray,-37.6724271,145.0436314
17,111786,50000,Residential,Single Family,Sold,Calloway,"286 Snipe Creek Road, Murray, KY",286 Snipe Creek Road,Murray,KY,Janette L DeWitt,Kopperud Realty,34.9043833,-91.5295857
25,113903,50000,Residential,Single Family,Sold,Calloway,"28 Kirksey Almo Rd, Murray, KY",28 Kirksey Almo Rd,Murray,KY,Tracy G Williams,Kopperud Realty,36.7022468,-88.3614006
34,116700,50000,Residential,Single Family,Sold,Calloway,"120 Spruce, Murray, KY",120 Spruce,Murray,KY,Shulorn Hollowell Jeter,eXp Realty LLC,,
35,119314,50000,Residential,Single Family,Sold,Calloway,"244 Beane Rd, Murray, KY",244 Beane Rd,Murray,KY,Tracy G Williams,Kopperud Realty,36.620977,-88.179711
1,100720,50750,Residential,Single Family,Sold,Calloway,"215 & 213 S 11th Street, Murray, KY",215 & 213 S 11th Street,Murray,KY,Lynda Houck,Greys Properties LLC,,
1,102012,51000,Residential,Single Family,Sold,Calloway,"1002 Olive St., Murray, KY",1002 Olive St.,Murray,KY,Shawn Stout,Crye-Leike Realty Services,38.6355848,-90.2250112
1,108297,51000,Residential,Single Family,Sold,Calloway,"300 Third Street, Hazel, KY",300 Third Street,Hazel,KY,Angela Yearry,Crye-Leike Realty Services,42.3652223,-71.08197110000000
1,108658,51000,Residential,Single Family,Sold,Calloway,"1685 Cypress Trail, New Concord, KY",1685 Cypress Trail,New Concord,KY,Kalie D Vowell,Re/Max Real Estate Associates Murray,,
23,113659,51000,Residential,Single Family,Sold,Calloway,"322 Irvan Street, Murray, KY",322 Irvan Street,Murray,KY,Seth Stevens,Keller Williams Experience Realty,35.5888526,-78.5033675
1,104075,51000,Residential,Single Family,Sold,Ballard,"426 N 6th St, Wickliffe, KY",426 N 6th St,Wickliffe,KY,Crystal Jeter,Keller Williams Experience Realty The Jeter Group,43.0617716,-87.9184904
1,92929,51000,Residential,Single Family,Sold,Caldwell,"10008 Marion Road, Princeton, KY",10008 Marion Road,Princeton,KY,Jesse Case,RE/MAX Real Estate Services,43.494729,-96.793854
1,104995,51000,Residential,Single Family,Sold,Caldwell,"1224 Dawson Road, Princeton, KY",1224 Dawson Road,Princeton,KY,Ryals Farless,Farless Realty,48.4974108,-89.4211696
1,96607,51360,Residential,Single Family,Sold,Christian,"1716 Calvin Dr, Hopkinsville, KY",1716 Calvin Dr,Hopkinsville,KY,Michael Harris,Harris Real Estate & Auction,,
1,94995,51400,Residential,Single Family,Sold,Caldwell,"523 N . Seminary St, Princeton, KY",523 N . Seminary St,Princeton,KY,Thomas F Hughes,Coldwell Banker Service 1st Realty,40.9536099,-90.3643323
12,113945,51500,Residential,Single Family,Sold,Caldwell,"403 Dollar Street, Princeton, KY",403 Dollar Street,Princeton,KY,Brandon K Warfield,Coldwell Banker Service 1st Realty,,
1,77470,52000,Residential,Single Family,Expired,Caldwell,"209 S DARBY, Princeton, KY",209 S DARBY,Princeton,KY,Melissa Wynn,Keller Williams Experience Realty Eddyville Branch,,
1,94236,52000,Residential,Single Family,Withdrawn,Christian,"1731 E 7th, Hopkinsville, KY",1731 E 7th,Hopkinsville,KY,Melody Holder,Re/Max Southern Charm,,
1,102322,52000,Residential,Single Family,Expired,Caldwell,"206 N Plum, Princeton, KY",206 N Plum,Princeton,KY,Marilyn J White,KY Homes Realty,,
1,82322,52000,Residential,Single Family,Sold,Caldwell,"913 W Main, Princeton, KY",913 W Main,Princeton,KY,Billie K Farless,Farless Realty,,
1,79877,52000,Residential,Single Family,Expired,Calloway,"1558  Almo Road, Almo, KY",1558  Almo Road,Almo,KY,Velda Buchanan,Greys Properties LLC,36.6939926,-88.2790005
1,99817,52000,Residential,Single Family,Sold,Caldwell,"1020 N Jefferson Street, Princeton, KY",1020 N Jefferson Street,Princeton,KY,Ryals Farless,Farless Realty,,
1,83466,52000,Residential,Single Family,Expired,Calloway,"2302 Old Salem Road, Murray, KY",2302 Old Salem Road,Murray,KY,Velda Buchanan,Greys Properties LLC,33.6276558,-83.9990554
12,116628,52000,Residential,Single Family,Sold,Caldwell,"408 Noble Avenue, Princeton, KY",408 Noble Avenue,Princeton,KY,Brandon K Warfield,Keller Williams Experience Realty Eddyville Branch,40.8280904,-73.8693684
1,109424,52000,Residential,Single Family,Sold,Ballard,"154 Apperson Road, Kevil, KY",154 Apperson Road,Kevil,KY,Cynthia M Jones,C21 Service Realty,37.0781238,-88.87011350000000
1,79949,52000,Residential,Single Family,Sold,Carlisle,"2723 STATE ROUTE 1203, Bardwell, KY",2723 STATE ROUTE 1203,Bardwell,KY,Nancy Black,RE/MAX Realty Group,,
1,101141,52000,Residential,Single Family,Sold,Carlisle,"7094 St. Rt. 80 East, Arlington, KY",7094 St. Rt. 80 East,Arlington,KY,Crystal Bailey,Keller Williams Experience Realty Paducah Branch,,
1,89636,52000,Residential,Single Family,Sold,Calloway,"805 N 18th Street, Murray, KY",805 N 18th Street,Murray,KY,Angelia S Fry,Re/Max Real Estate Associates Murray,39.9680298,-75.1668229
1,114478,52000,Residential,Single Family,Sold,Calloway,"205 Gilbert Street, Hazel, KY",205 Gilbert Street,Hazel,KY,Gale Broach Sharp,Kopperud Realty,-34.9346157,138.5943249
14,114956,52000,Residential,Single Family,Sold,Calloway,"413 S 10th, Murray, KY",413 S 10th,Murray,KY,Seth Stevens,Keller Williams Experience Realty,,
1,97445,52100,Residential,Single Family,Sold,Ballard,"1094 New York Rd, Wickliffe, KY",1094 New York Rd,Wickliffe,KY,Elizabeth F Johnson,Professional Associates Realty Inc.,40.8724517,-97.8451137
1,82949,52151,Residential,Single Family,Sold,Calloway,"902 Pogue Stret, Murray, KY",902 Pogue Stret,Murray,KY,William T Chavis,Chavis Real Estate and Auction,35.9826222,-97.0180439
1,89146,52200,Residential,Single Family,Withdrawn,Calloway,"402 N 5th, Murray, KY",402 N 5th,Murray,KY,Loretta Jobs,Keller Williams Experience Realty,,
1,87147,52250,Residential,Single Family,Sold,Calloway,"416 South 9th Street, Murray, KY",416 South 9th Street,Murray,KY,Michael Harris,Harris Real Estate & Auction,,
1,82811,52500,Residential,Single Family,Expired,Caldwell,"132 E Young Street, Princeton, KY",132 E Young Street,Princeton,KY,Billie K Farless,Farless Realty,30.437073,-87.21854430000000
1,105271,52500,Residential,Single Family,Sold,Calloway,"517 Whitnell, Murray, KY",517 Whitnell,Murray,KY,Rebecca Landolt,Loretta Jobs Realty,,
1,98374,52500,Residential,Single Family,Expired,Ballard,"438 Chestnut Street, LaCenter, KY",438 Chestnut Street,LaCenter,KY,Juli Sizemore,Keller Williams Experience Realty,39.9164633,-75.2823203
28,110660,52500,Residential,Single Family,Sold,Ballard,"720 Beech Grove Rd, Wickliffe, KY",720 Beech Grove Rd,Wickliffe,KY,Larry Kelley,River Country Real Estate,,
1,105755,52500,Residential,Single Family,Sold,Carlisle,"152 High, Bardwell, KY",152 High,Bardwell,KY,Nancy Black,RE/MAX Realty Group,,
1,110672,52500,Residential,Single Family,Sold,Carlisle,"491 Hwy 62, Bardwell, KY",491 Hwy 62,Bardwell,KY,Larry Kelley,River Country Real Estate,,
1,103751,52825,Residential,Single Family,Expired,Calloway,"32 Norris, New Concord, KY",32 Norris,New Concord,KY,Rebecca Landolt,Loretta Jobs Realty,-37.758569,175.251703
1,110067,52900,Residential,Single Family,Sold,Calloway,"1007 Main Street, Murray, KY",1007 Main Street,Murray,KY,Tiffany Carlson,The Jeter Group,,
1,79495,53000,Residential,Single Family,Sold,Calloway,"504 4th Street, Hazel, KY",504 4th Street,Hazel,KY,Reno Anderson,Greys Properties LLC,,
1,98854,53000,Residential,Single Family,Sold,Calloway,"86 Scenic Valley Lane, New Concord, KY",86 Scenic Valley Lane,New Concord,KY,Becky Spann,Keller Williams Experience Realty,36.5880115,-88.0812117
12,112827,53000,Residential,Single Family,Sold,Calloway,"625 N 4th Street, Murray, KY",625 N 4th Street,Murray,KY,Janette L DeWitt,Kopperud Realty,39.9623652,-75.14459770000000
1,105892,53000,Residential,Single Family,Sold,Ballard,"146 Crossover Road, Wickliffe, KY",146 Crossover Road,Wickliffe,KY,Larry Kelley,River Country Real Estate,,
1,110204,53000,Residential,Single Family,Sold,Ballard,"3781 Tabor Road, Barlow, KY",3781 Tabor Road,Barlow,KY,Cindy Hart,Fern Leaf Real Estate,,
1,83971,53500,Residential,Single Family,Expired,Carlisle,"6 Washington Street, Arlington, KY",6 Washington Street,Arlington,KY,Deana C O'Neal,Bone & Co. Realtors,40.7058603,-74.0154926
1,109995,53500,Residential,Single Family,Sold,Ballard,"1970 Mayfield Road, Wickliffe, KY",1970 Mayfield Road,Wickliffe,KY,Lisa Humphrey,Elite Realty,41.50846080000000,-81.59052900000000
24,111792,53500,Residential,Single Family,Sold,Ballard,"871 Beech Grove Road, Wickliffe, KY",871 Beech Grove Road,Wickliffe,KY,Melissa Faughn,RE/MAX Realty Group,54.9675092,-1.6392089
1,93816,53750,Residential,Single Family,Sold,Calloway,"503 S 9th, Murray, KY",503 S 9th,Murray,KY,Wilma Woods,Keller Williams Experience Realty,,
1,85578,54000,Residential,Single Family,Expired,Calloway,"625 Broad St., Murray, KY",625 Broad St.,Murray,KY,Lindy Knight,Kopperud Realty,,
1,100051,54000,Residential,Single Family,Withdrawn,Calloway,"300 Third Street, Hazel, KY",300 Third Street,Hazel,KY,Philip U Moore,Crye-Leike Realty Services,42.3652223,-71.08197110000000
1,93443,54000,Residential,Single Family,Sold,Calloway,"1320 Sycamore St, Murray, KY",1320 Sycamore St,Murray,KY,Angie Carlson-Bogard,C21 Service Realty Inc. Marshall County,,
1,105042,54000,Residential,Single Family,Withdrawn,Calloway,"300 Third Street, Hazel, KY",300 Third Street,Hazel,KY,Vicki C Moore,Crye-Leike Realty Services,42.3652223,-71.08197110000000
1,85690,54000,Residential,Single Family,Sold,Ballard,"535 Wall Street, Barlow, KY",535 Wall Street,Barlow,KY,David Nelson,Purchase Realty Group,36.94201460000000,-86.4188099
1,100576,54000,Residential,Single Family,Sold,Ballard,"415 Lee Street, Wickliffe, KY",415 Lee Street,Wickliffe,KY,Marcus Williams,Sirk & Company Real Estate,,
1,97569,54500,Residential,Single Family,Sold,Caldwell,"808 West Main, Princeton, KY",808 West Main,Princeton,KY,Kelly B Mitchell,KY Homes Realty,,
19,114995,54900,Residential,Single Family,Withdrawn,Ballard,"235 Ohio Street, Wickliffe, KY",235 Ohio Street,Wickliffe,KY,Marsha Bartlett,eXp Realty LLC,40.5914289,-83.842055
1,80967,55000,Residential,Single Family,Expired,Calloway,"404 S 10th, Murray, KY",404 S 10th,Murray,KY,Michael D Conley,Keller Williams Experience Realty,,
1,84144,55000,Residential,Single Family,Sold,Caldwell,"12719 HWY 70, Princeton, KY",12719 HWY 70,Princeton,KY,Suzanne Duncan,RE/MAX Real Estate Services,,
1,96280,55000,Residential,Single Family,Expired,Calloway,"102 W Whisper Dr, Murray, KY",102 W Whisper Dr,Murray,KY,Traci Markum,1st Realty Group,43.2435668,-115.8413316
1,106614,55000,Residential,Single Family,Withdrawn,Ballard,"316 Lisa Drive, Wickliffe, KY",316 Lisa Drive,Wickliffe,KY,Laura Braboy,RE/MAX Realty Group,,
1,100748,55000,Residential,Single Family,Expired,Calloway,"461 Post Oak Drive, Murray, KY",461 Post Oak Drive,Murray,KY,Kim Musgrave,Elite Realty,32.7836109,-79.8560871
1,85336,55000,Residential,Single Family,Sold,Caldwell,"208 N Mitchell Street, Princeton, KY",208 N Mitchell Street,Princeton,KY,Ryals Farless,Farless Realty,44.2517131,-85.40015170000000
1,105096,55000,Residential,Single Family,Expired,Calloway,"48 2nd Street, Almo, KY",48 2nd Street,Almo,KY,Brenda C Rowland,Kopperud Realty,,
1,95441,55000,Residential,Single Family,Withdrawn,Carlisle,"7094 St. Rt. 80 East, Arlington, KY",7094 St. Rt. 80 East,Arlington,KY,Crystal Bailey,Keller Williams Experience Realty Paducah Branch,,
1,84710,55000,Residential,Single Family,Expired,Christian,"2802 Butler Road, Hopkinsville, KY",2802 Butler Road,Hopkinsville,KY,Karen Randels,Re/Max Southern Charm,,
1,94881,55000,Residential,Single Family,Sold,Caldwell,"511 E Market, Princeton, KY",511 E Market,Princeton,KY,Rose Morse,Bone & Co. Realtors Eddyville,,
1,84369,55000,Residential,Single Family,Expired,Caldwell,"915 W Main Street, Princeton, KY",915 W Main Street,Princeton,KY,Ryals Farless,Farless Realty,36.3956145,-97.8990528
1,100006,55000,Residential,Single Family,Withdrawn,Carlisle,"7094 St. Rt. 80 East, Arlington, KY",7094 St. Rt. 80 East,Arlington,KY,Crystal Bailey,Keller Williams Experience Realty Paducah Branch,,
1,102826,55000,Residential,Single Family,Sold,Caldwell,"407 E Market St., Princeton, KY",407 E Market St.,Princeton,KY,Suzanne Duncan,RE/MAX Real Estate Services,43.8514592,-79.3019489
1,80444,55000,Residential,Single Family,Withdrawn,Caldwell,"312 N Eagle, Princeton, KY",312 N Eagle,Princeton,KY,Natalie K Wyatt,KY Homes Realty,,
1,103379,55000,Residential,Single Family,Sold,Caldwell,"4759 Farmersville Road, Princeton, KY",4759 Farmersville Road,Princeton,KY,*Not in *Regional MLS,*Not in Regional MLS,39.6748137,-84.42372860000000
1,83465,55000,Residential,Single Family,Withdrawn,Caldwell,"278 Farmersville Rd., Princeton, KY",278 Farmersville Rd.,Princeton,KY,Laurie K Osborne,C21 Land of Lakes Inc.,41.6962942,-70.4810131
1,103890,55000,Residential,Single Family,Sold,Caldwell,"604 Maple Street, Princeton, KY",604 Maple Street,Princeton,KY,Billie K Farless,Farless Realty,,
1,108936,55000,Residential,Single Family,Sold,Caldwell,"1565 Dawson Road, Princeton, KY",1565 Dawson Road,Princeton,KY,Billie K Farless,Farless Realty,48.4974108,-89.4211696
1,111290,55000,Residential,Single Family,Sold,Caldwell,"603 Hopkinsville, Princeton, KY",603 Hopkinsville,Princeton,KY,Brandon K Warfield,Coldwell Banker Service 1st Realty,36.8656008,-87.4886186
1,83480,55000,Residential,Single Family,Sold,Ballard,"2738 Woodville Road, Kevil, KY",2738 Woodville Road,Kevil,KY,Betsy Roberts,C21 Service Realty,,
1,92523,55000,Residential,Single Family,Sold,Ballard,"6319 Paducah Road, Kevil, KY",6319 Paducah Road,Kevil,KY,Chris Wooley,1st Ky Realty and Auction,37.0790609,-88.94013320000000
17,118878,55000,Residential,Single Family,Sold,Ballard,"247 COURT STREET, Wickliffe, KY",247 COURT STREET,Wickliffe,KY,Sharon K Carvell,Keller Williams Experience Realty Paducah Branch,40.6858128,-73.9940368
1,109416,55000,Residential,Single Family,Sold,Carlisle,"7851 State Route 80 E, Arlington, KY",7851 State Route 80 E,Arlington,KY,Nancy Black,RE/MAX Realty Group,,
21,119051,55000,Residential,Single Family,Sold,Carlisle,"145 St. Rt. 1820, Cunningham, KY",145 St. Rt. 1820,Cunningham,KY,Ella E Burgess,Arnold Realty Group,,
1,79511,55000,Residential,Single Family,Sold,Calloway,"604 Sycamore Street, Murray, KY",604 Sycamore Street,Murray,KY,John H Kopperud,Kopperud Realty,,
1,92239,55000,Residential,Single Family,Sold,Calloway,"289 Roosevelt Road, Dexter, KY",289 Roosevelt Road,Dexter,KY,Aleshia G Banks,Keller Williams Experience Realty,41.8586252,-88.0784527
1,93339,55000,Residential,Single Family,Sold,Calloway,"0 Smallman Lane, Murray, KY",0 Smallman Lane,Murray,KY,Mark Fredrick,1st Ky Realty and Auction,36.6785269,-88.0888926
1,95663,55000,Residential,Single Family,Sold,Calloway,"1312 Sycamore, Murray, KY",1312 Sycamore,Murray,KY,Gale Broach Sharp,Kopperud Realty,,
0,96173,55000,Residential,Single Family,Sold,Calloway,"33 Canal, Murray, KY",33 Canal,Murray,KY,Brittany J Marchetti,Kopperud Realty,,
1,100159,55000,Residential,Single Family,Sold,Calloway,"O BOATWRIGHT TRAIL, Murray, KY",O BOATWRIGHT TRAIL,Murray,KY,Gary L Hendley,Trifecta Real Estate Services,,
1,103118,55000,Residential,Single Family,Sold,Calloway,"504 Chantilly Drive, Murray, KY",504 Chantilly Drive,Murray,KY,Patricia A Cherry,Re/Max Real Estate Associates Murray,29.5807096,-90.7553324
35,115305,55000,Residential,Single Family,Sold,Calloway,"711 Story, Murray, KY",711 Story,Murray,KY,Krista K Thompson,Kopperud Realty,,
1,93017,55200,Residential,Single Family,Sold,Calloway,"89 Pinecreek Lane, Murray, KY",89 Pinecreek Lane,Murray,KY,Kimberly M Spell,Purchase Realty Group,36.6519124,-88.450552
1,83401,55500,Residential,Single Family,Withdrawn,Caldwell,"311 Dawson Rd, Princeton, KY",311 Dawson Rd,Princeton,KY,Amy Hughes,Keller Williams Experience Realty Paducah Branch,36.4865845,-96.1324569
14,112104,55650,Residential,Single Family,Sold,Calloway,"617 Main Street, Hazel, KY",617 Main Street,Hazel,KY,Karrie L Garrigus,Markethouse Realty PLLC,,
1,86214,55700,Residential,Single Family,Sold,Caldwell,"416 S Seminary Street, Princeton, KY",416 S Seminary Street,Princeton,KY,Jesse Case,RE/MAX Real Estate Services,37.1045389,-87.88800600000000
1,82746,55800,Residential,Single Family,Sold,Calloway,"508 South 11th Street, Murray, KY",508 South 11th Street,Murray,KY,Karol Kemp Utley,Kopperud Realty,40.7387766,-74.2022222
1,91589,56000,Residential,Single Family,Sold,Calloway,"1299 Pottertown Road, Murray, KY",1299 Pottertown Road,Murray,KY,Gale Broach Sharp,Kopperud Realty,36.6225611,-88.23877400000000
1,87026,56000,Residential,Single Family,Sold,Caldwell,"100 N Chestnut Street, Princeton, KY",100 N Chestnut Street,Princeton,KY,Billie K Farless,Farless Realty,,
4,116051,56175,Residential,Single Family,Sold,Christian,"16546 Princeton Road, Cerulean, KY",16546 Princeton Road,Cerulean,KY,Michael Harris,Harris Real Estate & Auction,,
1,109908,56500,Residential,Single Family,Sold,Calloway,"11898 State Route 94 E, Murray, KY",11898 State Route 94 E,Murray,KY,Patricia A Cherry,Re/Max Real Estate Associates Murray,,
9,83681,57000,Residential,Single Family,Expired,Caldwell,"127 S Highland, Princeton, KY",127 S Highland,Princeton,KY,Rose Morse,Bone & Co. Realtors Eddyville,35.1092742,-89.9459903
35,120145,57000,Residential,Single Family,Sold,Calloway,"60 Fogarty Dr, New Concord, KY",60 Fogarty Dr,New Concord,KY,Tracy G Williams,Kopperud Realty,40.2446351,-74.6939917
1,88594,57000,Residential,Single Family,Expired,Calloway,"1299 Pottertown, Murray, KY",1299 Pottertown,Murray,KY,Judy E Denton,Harris Real Estate & Auction Murray,,
1,90298,57000,Residential,Single Family,Sold,Christian,"500 S Wooldridge Rd, Hopkinsville, KY",500 S Wooldridge Rd,Hopkinsville,KY,Keanu C Murphy,Trifecta Real Estate Services,36.8565774,-87.5099637
1,84015,57000,Residential,Single Family,Sold,Ballard,"137 Phillips Drive, Wickliffe, KY",137 Phillips Drive,Wickliffe,KY,Kimberly M Spell,Purchase Realty Group,,
1,101064,57000,Residential,Single Family,Sold,Ballard,"524 Liberty Rd., Wickliffe, KY",524 Liberty Rd.,Wickliffe,KY,Larry Kelley,River Country Real Estate,,
1,94227,57000,Residential,Single Family,Sold,Caldwell,"123 Jacob Dr., Princeton, KY",123 Jacob Dr.,Princeton,KY,Rose Morse,Bone & Co. Realtors Eddyville,,
1,104906,57000,Residential,Single Family,Sold,Carlisle,"66 2nd Street, Arlington, KY",66 2nd Street,Arlington,KY,Connie Perry,C21 Service Realty,,
